[{"num4": -704, "num5": 0, "num1": 214, "num2": 132, "num3": 0, "height": 2475, "last_modify": 1483441426.023417, "airport_dep": "", "str1": "1722", "lon": 7.314, "fid": "c10729a", "idshex": "", "flight": "", "typecode": "E55P", "first_in": 1483441426.023417, "timestamp": 1483441420, "airport_arr": "", "airport_icao_code": "F-DNAA1", "lat": 9.0788, "airline_code2": "E55P", "airline_code1": "", "zone_range": "10,0,0,10", "_id": "c10729a_1483441420"}, {"num4": -64, "num5": 0, "num1": 185, "num2": 138, "num3": 0, "height": 450, "last_modify": 1483441276.162866, "airport_dep": "", "str1": "0020", "lon": -8.0172, "fid": "c107da3", "idshex": "4CA31E", "flight": "274", "typecode": "A139", "first_in": 1483441276.162866, "timestamp": 1483441267, "airport_arr": "", "airport_icao_code": "F-EICM2", "lat": 53.0984, "airline_code2": "AC112", "airline_code1": "AC112", "zone_range": "60,50,-10,0", "_id": "c107da3_1483441267"}, {"num4": 0, "num5": 0, "num1": 132, "num2": 437, "num3": 0, "height": 38975, "last_modify": 1483441415.784216, "airport_dep": "NBO", "str1": "1740", "lon": 40.6522, "fid": "c106cc7", "idshex": "06001C", "flight": "3B-NBF", "typecode": "A319", "first_in": 1483441415.784216, "timestamp": 1483441407, "airport_arr": "MRU", "airport_icao_code": "F-HKMO1", "lat": -4.6423, "airline_code2": "MAU535", "airline_code1": "MK535", "zone_range": "0,-10,40,50", "_id": "c106cc7_1483441407"}, {"num4": 1728, "num5": 0, "num1": 277, "num2": 456, "num3": 0, "height": 32925, "last_modify": 1483441392.532881, "airport_dep": "MRU", "str1": "0000", "lon": 55.6975, "fid": "c1076d5", "idshex": "060021", "flight": "3B-NBJ", "typecode": "A343", "first_in": 1483441392.532881, "timestamp": 1483441385, "airport_arr": "TNR", "airport_icao_code": "F-FMEE2", "lat": -20.5882, "airline_code2": "MAU288", "airline_code1": "MK288", "zone_range": "-20,-30,50,60", "_id": "c1076d5_1483441385"}, {"num4": 0, "num5": 0, "num1": 103, "num2": 489, "num3": 0, "height": 33000, "last_modify": 1483441279.074036, "airport_dep": "TXL", "str1": "6424", "lon": 33.6073, "fid": "c1059fe", "idshex": "600804", "flight": "4K-AZ04", "typecode": "A319", "first_in": 1483441279.074036, "timestamp": 1483441268, "airport_arr": "GYD", "airport_icao_code": "F-UUOB2", "lat": 52.9553, "airline_code2": "AHY64", "airline_code1": "J264", "zone_range": "60,50,30,40", "_id": "c1059fe_1483441268"}, {"num4": 0, "num5": 0, "num1": 148, "num2": 467, "num3": 0, "height": 33000, "last_modify": 1483441268.390422, "airport_dep": "VKO", "str1": "2125", "lon": 49.1427, "fid": "c10513f", "idshex": "600BBF", "flight": "4K-AZ11", "typecode": "B752", "first_in": 1483441268.390422, "timestamp": 1483441261, "airport_arr": "GYD", "airport_icao_code": "F-UATE1", "lat": 42.8786, "airline_code2": "AHY8108", "airline_code1": "J28108", "zone_range": "50,40,40,50", "_id": "c10513f_1483441261"}, {"num4": 64, "num5": 0, "num1": 331, "num2": 131, "num3": 0, "height": 400, "last_modify": 1483441256.332798, "airport_dep": "", "str1": "0120", "lon": 50.4011, "fid": "c1077f6", "idshex": "600880", "flight": "4K-AZ128", "typecode": "A139", "first_in": 1483441256.332798, "timestamp": 1483441247, "airport_arr": "", "airport_icao_code": "F-UBBB1", "lat": 39.9381, "airline_code2": "4KAZ128", "airline_code1": "", "zone_range": "40,30,50,60", "_id": "c1077f6_1483441247"}, {"num4": 0, "num5": 0, "num1": 341, "num2": 396, "num3": 0, "height": 30000, "last_modify": 1483441256.330133, "airport_dep": "", "str1": "6704", "lon": 50.0732, "fid": "c1078a4", "idshex": "600842", "flight": "4K-AZ66", "typecode": "E190", "first_in": 1483441256.330133, "timestamp": 1483441246, "airport_arr": "", "airport_icao_code": "T-MLAT1", "lat": 36.8196, "airline_code2": "", "airline_code1": "", "zone_range": "40,30,50,60", "_id": "c1078a4_1483441246"}, {"num4": 0, "num5": 0, "num1": 132, "num2": 0, "num3": 1, "height": 0, "last_modify": 1483441272.927321, "airport_dep": "CDG", "str1": "0000", "lon": 2.6016, "fid": "c1064a5", "idshex": "60084D", "flight": "4K-AZ77", "typecode": "A320", "first_in": 1483441272.927321, "timestamp": 1483441251, "airport_arr": "GYD", "airport_icao_code": "T-LFPG1", "lat": 49.0002, "airline_code2": "AHY74", "airline_code1": "J274", "zone_range": "50,40,0,10", "_id": "c1064a5_1483441251"}, {"num4": 64, "num5": 0, "num1": 106, "num2": 490, "num3": 0, "height": 31025, "last_modify": 1483441279.073687, "airport_dep": "MSQ", "str1": "6221", "lon": 33.6562, "fid": "c106f9e", "idshex": "600850", "flight": "4K-AZ80", "typecode": "A320", "first_in": 1483441279.073687, "timestamp": 1483441269, "airport_arr": "GYD", "airport_icao_code": "F-UUOR2", "lat": 53.0579, "airline_code2": "AHY702", "airline_code1": "J2702", "zone_range": "60,50,30,40", "_id": "c106f9e_1483441269"}, {"num4": 0, "num5": 0, "num1": 84, "num2": 475, "num3": 0, "height": 32975, "last_modify": 1483441266.735311, "airport_dep": "IST", "str1": "5017", "lon": 32.0858, "fid": "c10722b", "idshex": "600852", "flight": "4K-AZ82", "typecode": "B763", "first_in": 1483441266.735311, "timestamp": 1483441259, "airport_arr": "GYD", "airport_icao_code": "F-UKFB1", "lat": 41.687, "airline_code2": "AHY8076", "airline_code1": "J28076", "zone_range": "50,40,30,40", "_id": "c10722b_1483441259"}, {"num4": 0, "num5": 0, "num1": 84, "num2": 479, "num3": 0, "height": 35025, "last_modify": 1483441270.627337, "airport_dep": "MXP", "str1": "0440", "lon": 15.8312, "fid": "c106a42", "idshex": "600853", "flight": "4K-AZ83", "typecode": "A320", "first_in": 1483441270.627337, "timestamp": 1483441259, "airport_arr": "GYD", "airport_icao_code": "F-LDZA4", "lat": 46.9707, "airline_code2": "AHY36", "airline_code1": "J236", "zone_range": "50,40,10,20", "_id": "c106a42_1483441259"}, {"num4": 0, "num5": 0, "num1": 343, "num2": 429, "num3": 0, "height": 33975, "last_modify": 1483441256.367507, "airport_dep": "DXB", "str1": "0565", "lon": 50.7942, "fid": "c104ad0", "idshex": "600854", "flight": "4K-AZ84", "typecode": "A320", "first_in": 1483441256.367507, "timestamp": 1483441248, "airport_arr": "GYD", "airport_icao_code": "F-OINN1", "lat": 38.5906, "airline_code2": "AHY5712", "airline_code1": "J25712", "zone_range": "40,30,50,60", "_id": "c104ad0_1483441248"}, {"num4": 2816, "num5": 0, "num1": 355, "num2": 439, "num3": 0, "height": 35350, "last_modify": 1483441244.827585, "airport_dep": "DXB", "str1": "0503", "lon": 55.8941, "fid": "c1073a8", "idshex": "600855", "flight": "4K-AZ85", "typecode": "A345", "first_in": 1483441244.827585, "timestamp": 1483441235, "airport_arr": "GYD", "airport_icao_code": "T-OMDB7", "lat": 27.1907, "airline_code2": "AHY12", "airline_code1": "J212", "zone_range": "30,20,50,60", "_id": "c1073a8_1483441235"}, {"num4": 0, "num5": 0, "num1": 296, "num2": 403, "num3": 0, "height": 40000, "last_modify": 1483441256.889734, "airport_dep": "", "str1": "0360", "lon": 59.1204, "fid": "c1062f2", "idshex": "600B21", "flight": "4K-SW888", "typecode": "B744", "first_in": 1483441256.889734, "timestamp": 1483441247, "airport_arr": "", "airport_icao_code": "F-OIMM1", "lat": 38.6934, "airline_code2": "AZG9084", "airline_code1": "7L9084", "zone_range": "40,30,50,60", "_id": "c1062f2_1483441247"}, {"num4": -128, "num5": 0, "num1": 162, "num2": 447, "num3": 0, "height": 38975, "last_modify": 1483441281.609031, "airport_dep": "LED", "str1": "0727", "lon": 40.6856, "fid": "c105e4b", "idshex": "51404C", "flight": "4L-TGN", "typecode": "B737", "first_in": 1483441281.609031, "timestamp": 1483441277, "airport_arr": "TBS", "airport_icao_code": "F-UKCC2", "lat": 50.6523, "airline_code2": "TGZ786", "airline_code1": "A9786", "zone_range": "60,50,40,50", "_id": "c105e4b_1483441277"}, {"num4": 0, "num5": 0, "num1": 284, "num2": 400, "num3": 0, "height": 36000, "last_modify": 1483441269.630801, "airport_dep": "TGD", "str1": "4156", "lon": 11.2594, "fid": "c1069dd", "idshex": "516097", "flight": "4O-AOB", "typecode": "E190", "first_in": 1483441269.630801, "timestamp": 1483441260, "airport_arr": "CDG", "airport_icao_code": "T-MLAT1", "lat": 46.5921, "airline_code2": "MGX234", "airline_code1": "YM234", "zone_range": "50,40,10,20", "_id": "c1069dd_1483441260"}, {"num4": 0, "num5": 0, "num1": 132, "num2": 20, "num3": 1, "height": 0, "last_modify": 1483441057.54182, "airport_dep": "TGD", "str1": "7364", "lon": 12.2431, "fid": "c106729", "idshex": "516094", "flight": "4O-AOP", "typecode": "F100", "first_in": 1483441057.54182, "timestamp": 1483441037, "airport_arr": "FCO", "airport_icao_code": "F-LIRA4", "lat": 41.792, "airline_code2": "MGX990", "airline_code1": "YM990", "zone_range": "50,40,10,20", "_id": "c106729_1483441037"}, {"num4": 1280, "num5": 0, "num1": 128, "num2": 474, "num3": 0, "height": 25450, "last_modify": 1483441426.176368, "airport_dep": "COK", "str1": "0646", "lon": 77.2747, "fid": "c107cb4", "idshex": "77044C", "flight": "4R-ABL", "typecode": "A320", "first_in": 1483441426.176368, "timestamp": 1483441406, "airport_arr": "CMB", "airport_icao_code": "F-VOCI2", "lat": 9.3258, "airline_code2": "ALK168", "airline_code1": "UL168", "zone_range": "10,0,70,80", "_id": "c107cb4_1483441406"}, {"num4": 0, "num5": 0, "num1": 200, "num2": 477, "num3": 0, "height": 31975, "last_modify": 1483441236.170016, "airport_dep": "CCU", "str1": "0470", "lon": 80.3314, "fid": "c105312", "idshex": "77044E", "flight": "4R-ABN", "typecode": "A320", "first_in": 1483441236.170016, "timestamp": 1483441226, "airport_arr": "CMB", "airport_icao_code": "F-VCBI6", "lat": 10.6445, "airline_code2": "ALK188", "airline_code1": "UL188", "zone_range": "20,10,80,90", "_id": "c105312_1483441226"}, {"num4": 0, "num5": 0, "num1": 356, "num2": 406, "num3": 0, "height": 36000, "last_modify": 1483441245.110841, "airport_dep": "CMB", "str1": "7377", "lon": 67.8699, "fid": "c1041c2", "idshex": "770450", "flight": "4R-ABP", "typecode": "A320", "first_in": 1483441245.110841, "timestamp": 1483441240, "airport_arr": "KHI", "airport_icao_code": "F-OPKC1", "lat": 22.993, "airline_code2": "ALK183", "airline_code1": "UL183", "zone_range": "30,20,60,70", "_id": "c1041c2_1483441240"}, {"num4": 1088, "num5": 0, "num1": 72, "num2": 452, "num3": 0, "height": 29975, "last_modify": 1483441426.142857, "airport_dep": "MLE", "str1": "0000", "lon": 75.1468, "fid": "c10789b", "idshex": "770451", "flight": "4R-ABQ", "typecode": "A321", "first_in": 1483441426.142857, "timestamp": 1483441420, "airport_arr": "CMB", "airport_icao_code": "F-VRMD1", "lat": 4.8152, "airline_code2": "ALK116", "airline_code1": "UL116", "zone_range": "10,0,70,80", "_id": "c10789b_1483441420"}, {"num4": 0, "num5": 0, "num1": 354, "num2": 369, "num3": 0, "height": 34025, "last_modify": 1483441245.798595, "airport_dep": "CMB", "str1": "7374", "lon": 77.435, "fid": "c104af3", "idshex": "770452", "flight": "4R-ABR", "typecode": "A321", "first_in": 1483441245.798595, "timestamp": 1483441239, "airport_arr": "DEL", "airport_icao_code": "F-VAID2", "lat": 23.4305, "airline_code2": "ALK195", "airline_code1": "UL195", "zone_range": "30,20,70,80", "_id": "c104af3_1483441239"}, {"num4": 256, "num5": 0, "num1": 246, "num2": 440, "num3": 0, "height": 27600, "last_modify": 1483441247.591904, "airport_dep": "CAN", "str1": "3130", "lon": 112.2668, "fid": "c107185", "idshex": "77058C", "flight": "4R-ALL", "typecode": "A333", "first_in": 1483441247.591904, "timestamp": 1483441240, "airport_arr": "BKK", "airport_icao_code": "F-ZGGG4", "lat": 21.7466, "airline_code2": "ALK883", "airline_code1": "UL883", "zone_range": "30,20,110,120", "_id": "c107185_1483441240"}, {"num4": -64, "num5": 0, "num1": 286, "num2": 394, "num3": 0, "height": 38000, "last_modify": 1483441281.793362, "airport_dep": "LHE", "str1": "0000", "lon": 44.0017, "fid": "c101972", "idshex": "77058E", "flight": "4R-ALN", "typecode": "A333", "first_in": 1483441281.793362, "timestamp": 1483441275, "airport_arr": "LHR", "airport_icao_code": "F-UUOT1", "lat": 53.2772, "airline_code2": "PIA757", "airline_code1": "PK757", "zone_range": "60,50,40,50", "_id": "c101972_1483441275"}, {"num4": 0, "num5": 0, "num1": 318, "num2": 438, "num3": 0, "height": 36000, "last_modify": 1483441244.929568, "airport_dep": "CMB", "str1": "4701", "lon": 58.7228, "fid": "c1036fb", "idshex": "770592", "flight": "4R-ALR", "typecode": "A333", "first_in": 1483441244.929568, "timestamp": 1483441239, "airport_arr": "LHR", "airport_icao_code": "F-OOMS3", "lat": 22.7616, "airline_code2": "ALK503", "airline_code1": "UL503", "zone_range": "30,20,50,60", "_id": "c1036fb_1483441239"}, {"num4": 0, "num5": 0, "num1": 166, "num2": 502, "num3": 0, "height": 26975, "last_modify": 1483441223.210819, "airport_dep": "TRZ", "str1": "0661", "lon": 79.3239, "fid": "c107686", "idshex": "773644", "flight": "4R-MRD", "typecode": "A321", "first_in": 1483441223.210819, "timestamp": 1483441216, "airport_arr": "CMB", "airport_icao_code": "F-VCBI6", "lat": 8.8223, "airline_code2": "ALK134", "airline_code1": "UL134", "zone_range": "10,0,70,80", "_id": "c107686_1483441216"}, {"num4": 384, "num5": 0, "num1": 136, "num2": 477, "num3": 0, "height": 29175, "last_modify": 1483441267.221077, "airport_dep": "BEG", "str1": "7354", "lon": 21.1069, "fid": "c107534", "idshex": "738284", "flight": "4X-ABF", "typecode": "A320", "first_in": 1483441267.221077, "timestamp": 1483441257, "airport_arr": "TLV", "airport_icao_code": "F-LHBP6", "lat": 43.9785, "airline_code2": "ISR794", "airline_code1": "6H794", "zone_range": "50,40,20,30", "_id": "c107534_1483441257"}, {"num4": -1216, "num5": 0, "num1": 46, "num2": 229, "num3": 0, "height": 4600, "last_modify": 1483441270.140222, "airport_dep": "TLV", "str1": "7261", "lon": 12.3992, "fid": "c10360d", "idshex": "738285", "flight": "4X-ABG", "typecode": "A320", "first_in": 1483441270.140222, "timestamp": 1483441261, "airport_arr": "FCO", "airport_icao_code": "F-LIRF1", "lat": 41.3879, "airline_code2": "ISR341", "airline_code1": "6H341", "zone_range": "50,40,10,20", "_id": "c10360d_1483441261"}, {"num4": 0, "num5": 0, "num1": 313, "num2": 405, "num3": 0, "height": 32000, "last_modify": 1483441255.45627, "airport_dep": "TLV", "str1": "7267", "lon": 31.04, "fid": "c106dac", "idshex": "738286", "flight": "4X-ABI", "typecode": "A320", "first_in": 1483441255.45627, "timestamp": 1483441248, "airport_arr": "MAD", "airport_icao_code": "F-OLBA2", "lat": 34.0379, "airline_code2": "ISR181", "airline_code1": "6H181", "zone_range": "40,30,30,40", "_id": "c106dac_1483441248"}, {"num4": 0, "num5": 0, "num1": 191, "num2": 258, "num3": 0, "height": 14750, "last_modify": 1483441255.62121, "airport_dep": "HFA", "str1": "5030", "lon": 35.4134, "fid": "c1078cb", "idshex": "738505", "flight": "4X-AVT", "typecode": "AT75", "first_in": 1483441255.62121, "timestamp": 1483441247, "airport_arr": "", "airport_icao_code": "T-MLAT1", "lat": 31.4296, "airline_code2": "AIZ931", "airline_code1": "IZ931", "zone_range": "40,30,30,40", "_id": "c1078cb_1483441247"}, {"num4": 0, "num5": 0, "num1": 222, "num2": 0, "num3": 1, "height": 0, "last_modify": 1483441255.592156, "airport_dep": "TLV", "str1": "0000", "lon": 34.9012, "fid": "c105324", "idshex": "7386C8", "flight": "4X-CVF", "typecode": "", "first_in": 1483441255.592156, "timestamp": 1483441238, "airport_arr": "", "airport_icao_code": "F-LLBG2", "lat": 32.0076, "airline_code2": "DEJKL", "airline_code1": "", "zone_range": "40,30,30,40", "_id": "c105324_1483441238"}, {"num4": -2112, "num5": 0, "num1": 240, "num2": 331, "num3": 0, "height": 30525, "last_modify": 1483441262.541214, "airport_dep": "TLV", "str1": "2442", "lon": -78.6475, "fid": "c0f787d", "idshex": "7380A7", "flight": "4X-EAJ", "typecode": "B763", "first_in": 1483441262.541214, "timestamp": 1483441257, "airport_arr": "YYZ", "airport_icao_code": "F-CYOW3", "lat": 44.4598, "airline_code2": "ELY29", "airline_code1": "LY29", "zone_range": "50,40,-80,-70", "_id": "c0f787d_1483441257"}, {"num4": 0, "num5": 0, "num1": 269, "num2": 0, "num3": 1, "height": 0, "last_modify": 1483441273.449561, "airport_dep": "MRS", "str1": "0000", "lon": 5.2185, "fid": "c107c43", "idshex": "7380AB", "flight": "4X-EAL", "typecode": "B763", "first_in": 1483441273.449561, "timestamp": 1483441256, "airport_arr": "TLV", "airport_icao_code": "F-LFML1", "lat": 43.4343, "airline_code2": "ELY322", "airline_code1": "LY322", "zone_range": "50,40,0,10", "_id": "c107c43_1483441256"}, {"num4": 0, "num5": 0, "num1": 283, "num2": 442, "num3": 0, "height": 38000, "last_modify": 1483441274.440603, "airport_dep": "TLV", "str1": "7256", "lon": 9.7519, "fid": "c103315", "idshex": "7380AC", "flight": "4X-EAM", "typecode": "B763", "first_in": 1483441274.440603, "timestamp": 1483441261, "airport_arr": "CDG", "airport_icao_code": "F-LIPE2", "lat": 45.7977, "airline_code2": "ELY323", "airline_code1": "LY323", "zone_range": "50,40,0,10", "_id": "c103315_1483441261"}, {"num4": 0, "num5": 0, "num1": 163, "num2": 462, "num3": 0, "height": 33000, "last_modify": 1483441255.45087, "airport_dep": "LAX", "str1": "6011", "lon": 30.8408, "fid": "c0ec3f2", "idshex": "738071", "flight": "4X-ECA", "typecode": "B772", "first_in": 1483441255.45087, "timestamp": 1483441249, "airport_arr": "TLV", "airport_icao_code": "F-LCEN3", "lat": 35.9394, "airline_code2": "ELY6", "airline_code1": "LY6", "zone_range": "40,30,30,40", "_id": "c0ec3f2_1483441249"}, {"num4": 0, "num5": 0, "num1": 200, "num2": 532, "num3": 0, "height": 32000, "last_modify": 1483441272.162619, "airport_dep": "TLV", "str1": "0000", "lon": -113.8707, "fid": "c0f80e0", "idshex": "738073", "flight": "4X-ECC", "typecode": "B772", "first_in": 1483441272.162619, "timestamp": 1483441264, "airport_arr": "LAX", "airport_icao_code": "F-CYOJ1", "lat": 59.3642, "airline_code2": "ELY5", "airline_code1": "LY5", "zone_range": "60,50,-120,-110", "_id": "c0f80e0_1483441264"}, {"num4": 0, "num5": 0, "num1": 296, "num2": 421, "num3": 0, "height": 38000, "last_modify": 1483441269.848295, "airport_dep": "TLV", "str1": "4701", "lon": 11.6597, "fid": "c10345b", "idshex": "738076", "flight": "4X-ECF", "typecode": "B772", "first_in": 1483441269.848295, "timestamp": 1483441260, "airport_arr": "LHR", "airport_icao_code": "F-LKMR1", "lat": 49.1576, "airline_code2": "ELY315", "airline_code1": "LY315", "zone_range": "50,40,10,20", "_id": "c10345b_1483441260"}, {"num4": 1856, "num5": 0, "num1": 106, "num2": 398, "num3": 0, "height": 23225, "last_modify": 1483441274.41046, "airport_dep": "MXP", "str1": "0401", "lon": 9.5883, "fid": "c107804", "idshex": "738050", "flight": "4X-EHA", "typecode": "B739", "first_in": 1483441274.41046, "timestamp": 1483441256, "airport_arr": "TLV", "airport_icao_code": "F-LIMC1", "lat": 45.5944, "airline_code2": "ELY382", "airline_code1": "LY382", "zone_range": "50,40,0,10", "_id": "c107804_1483441256"}, {"num4": -1792, "num5": 0, "num1": 121, "num2": 395, "num3": 0, "height": 18800, "last_modify": 1483441255.549191, "airport_dep": "ATH", "str1": "5507", "lon": 33.6699, "fid": "c1064b3", "idshex": "738053", "flight": "4X-EHD", "typecode": "B739", "first_in": 1483441255.549191, "timestamp": 1483441247, "airport_arr": "TLV", "airport_icao_code": "F-LLBG2", "lat": 32.7501, "airline_code2": "ELY542", "airline_code1": "LY542", "zone_range": "40,30,30,40", "_id": "c1064b3_1483441247"}, {"num4": 64, "num5": 0, "num1": 111, "num2": 432, "num3": 0, "height": 35025, "last_modify": 1483441255.023281, "airport_dep": "FCO", "str1": "0210", "lon": 20.572, "fid": "c106314", "idshex": "738057", "flight": "4X-EHI", "typecode": "B739", "first_in": 1483441255.023281, "timestamp": 1483441247, "airport_arr": "TLV", "airport_icao_code": "F-LGRX2", "lat": 38.0741, "airline_code2": "ELY386", "airline_code1": "LY386", "zone_range": "40,30,20,30", "_id": "c106314_1483441247"}, {"num4": 64, "num5": 0, "num1": 134, "num2": 400, "num3": 0, "height": 33000, "last_modify": 1483441255.135826, "airport_dep": "VCE", "str1": "0230", "lon": 23.9122, "fid": "c106170", "idshex": "738063", "flight": "4X-EKA", "typecode": "B738", "first_in": 1483441255.135826, "timestamp": 1483441249, "airport_arr": "TLV", "airport_icao_code": "F-LGLR1", "lat": 39.8147, "airline_code2": "ELY290", "airline_code1": "LY290", "zone_range": "40,30,20,30", "_id": "c106170_1483441249"}, {"num4": -64, "num5": 0, "num1": 132, "num2": 451, "num3": 0, "height": 35000, "last_modify": 1483441271.005021, "airport_dep": "MUC", "str1": "7154", "lon": 19.2917, "fid": "c106993", "idshex": "738064", "flight": "4X-EKB", "typecode": "B738", "first_in": 1483441271.005021, "timestamp": 1483441260, "airport_arr": "TLV", "airport_icao_code": "F-LYBE1", "lat": 43.9017, "airline_code2": "ELY354", "airline_code1": "LY354", "zone_range": "50,40,10,20", "_id": "c106993_1483441260"}, {"num4": -2048, "num5": 0, "num1": 127, "num2": 455, "num3": 0, "height": 28025, "last_modify": 1483441255.524549, "airport_dep": "OTP", "str1": "5445", "lon": 33.2023, "fid": "c105813", "idshex": "73806C", "flight": "4X-EKF", "typecode": "B738", "first_in": 1483441255.524549, "timestamp": 1483441248, "airport_arr": "TLV", "airport_icao_code": "F-LCLK3", "lat": 33.1011, "airline_code2": "ELY574", "airline_code1": "LY574", "zone_range": "40,30,30,40", "_id": "c105813_1483441248"}, {"num4": 0, "num5": 0, "num1": 196, "num2": 429, "num3": 0, "height": 34000, "last_modify": 1483441279.012741, "airport_dep": "DME", "str1": "7222", "lon": 32.2384, "fid": "c1065f3", "idshex": "73806D", "flight": "4X-EKH", "typecode": "B738", "first_in": 1483441279.012741, "timestamp": 1483441268, "airport_arr": "TLV", "airport_icao_code": "F-UUBP1", "lat": 51.7224, "airline_code2": "ELY612", "airline_code1": "LY612", "zone_range": "60,50,30,40", "_id": "c1065f3_1483441268"}, {"num4": 0, "num5": 0, "num1": 322, "num2": 419, "num3": 0, "height": 36000, "last_modify": 1483441267.506535, "airport_dep": "TLV", "str1": "7260", "lon": 23.0471, "fid": "c1014d8", "idshex": "73806E", "flight": "4X-EKJ", "typecode": "B738", "first_in": 1483441267.506535, "timestamp": 1483441260, "airport_arr": "MXP", "airport_icao_code": "F-LGKV1", "lat": 40.9674, "airline_code2": "ELY287", "airline_code1": "LY287", "zone_range": "50,40,20,30", "_id": "c1014d8_1483441260"}, {"num4": -64, "num5": 0, "num1": 132, "num2": 443, "num3": 0, "height": 33000, "last_modify": 1483441267.505189, "airport_dep": "BUD", "str1": "2606", "lon": 23.0283, "fid": "c106f97", "idshex": "738060", "flight": "4X-EKM", "typecode": "B738", "first_in": 1483441267.505189, "timestamp": 1483441260, "airport_arr": "TLV", "airport_icao_code": "F-LYBE1", "lat": 44.5047, "airline_code2": "ELY2366", "airline_code1": "LY2366", "zone_range": "50,40,20,30", "_id": "c106f97_1483441260"}, {"num4": 64, "num5": 0, "num1": 195, "num2": 383, "num3": 0, "height": 35000, "last_modify": 1483441268.184251, "airport_dep": "KBP", "str1": "6004", "lon": 29.3763, "fid": "c105d7f", "idshex": "738069", "flight": "4X-EKO", "typecode": "B738", "first_in": 1483441268.184251, "timestamp": 1483441258, "airport_arr": "TLV", "airport_icao_code": "T-LRBS1", "lat": 43.6891, "airline_code2": "ELY2652", "airline_code1": "LY2652", "zone_range": "50,40,20,30", "_id": "c105d7f_1483441258"}, {"num4": 0, "num5": 0, "num1": 225, "num2": 11, "num3": 1, "height": 0, "last_modify": 1483441273.543855, "airport_dep": "GVA", "str1": "5750", "lon": 6.0985, "fid": "c107b99", "idshex": "73806A", "flight": "4X-EKP", "typecode": "B738", "first_in": 1483441273.543855, "timestamp": 1483441261, "airport_arr": "TLV", "airport_icao_code": "F-LSGG3", "lat": 46.2293, "airline_code2": "ELY346", "airline_code1": "LY346", "zone_range": "50,40,0,10", "_id": "c107b99_1483441261"}, {"num4": 1728, "num5": 0, "num1": 153, "num2": 443, "num3": 0, "height": 25350, "last_modify": 1483441277.819791, "airport_dep": "SXF", "str1": "6407", "lon": 13.902, "fid": "c107b02", "idshex": "738058", "flight": "4X-EKU", "typecode": "B738", "first_in": 1483441277.819791, "timestamp": 1483441267, "airport_arr": "TLV", "airport_icao_code": "F-EDDP2", "lat": 51.5269, "airline_code2": "ELY2372", "airline_code1": "LY2372", "zone_range": "60,50,10,20", "_id": "c107b02_1483441267"}, {"num4": 0, "num5": 0, "num1": 210, "num2": 21, "num3": 1, "height": 0, "last_modify": 1483441263.202329, "airport_dep": "TLV", "str1": "0755", "lon": -73.7739, "fid": "c0f7a9a", "idshex": "738041", "flight": "4X-ELA", "typecode": "B744", "first_in": 1483441263.202329, "timestamp": 1483441255, "airport_arr": "JFK", "airport_icao_code": "F-KJFK2", "lat": 40.6406, "airline_code2": "ELY1", "airline_code1": "LY1", "zone_range": "50,40,-80,-70", "_id": "c0f7a9a_1483441255"}, {"num4": 0, "num5": 0, "num1": 126, "num2": 595, "num3": 0, "height": 33000, "last_modify": 1483441280.505139, "airport_dep": "JFK", "str1": "6003", "lon": 4.7615, "fid": "c10052e", "idshex": "738042", "flight": "4X-ELB", "typecode": "B744", "first_in": 1483441280.505139, "timestamp": 1483441268, "airport_arr": "TLV", "airport_icao_code": "F-ENZV2", "lat": 59.3561, "airline_code2": "ELY8", "airline_code1": "LY8", "zone_range": "60,50,0,10", "_id": "c10052e_1483441268"}, {"num4": 0, "num5": 0, "num1": 281, "num2": 12, "num3": 1, "height": 0, "last_modify": 1483441052.047599, "airport_dep": "TLV", "str1": "0757", "lon": -74.1728, "fid": "c0f7abd", "idshex": "738044", "flight": "4X-ELD", "typecode": "B744", "first_in": 1483441052.047599, "timestamp": 1483441045, "airport_arr": "EWR", "airport_icao_code": "F-KJRA1", "lat": 40.6911, "airline_code2": "ELY27", "airline_code1": "LY27", "zone_range": "50,40,-80,-70", "_id": "c0f7abd_1483441045"}, {"num4": 128, "num5": 0, "num1": 209, "num2": 88, "num3": 0, "height": 700, "last_modify": 1483441255.594821, "airport_dep": "", "str1": "5123", "lon": 34.96, "fid": "c107dab", "idshex": "73945B", "flight": "4XBEH", "typecode": "R44", "first_in": 1483441255.594821, "timestamp": 1483441244, "airport_arr": "", "airport_icao_code": "T-LLHA2", "lat": 32.7895, "airline_code2": "4XBEH", "airline_code1": "", "zone_range": "40,30,30,40", "_id": "c107dab_1483441244"}, {"num4": 0, "num5": 0, "num1": 114, "num2": 526, "num3": 0, "height": 39000, "last_modify": 1483441255.281477, "airport_dep": "MJI", "str1": "1676", "lon": 26.2657, "fid": "c10610e", "idshex": "018085", "flight": "5A-LAU", "typecode": "A332", "first_in": 1483441255.281477, "timestamp": 1483441242, "airport_arr": "", "airport_icao_code": "F-LGSA5", "lat": 31.6641, "airline_code2": "LAA202", "airline_code1": "LN202", "zone_range": "40,30,20,30", "_id": "c10610e_1483441242"}, {"num4": -1472, "num5": 0, "num1": 328, "num2": 449, "num3": 0, "height": 28100, "last_modify": 1483441255.382115, "airport_dep": "MJI", "str1": "2045", "lon": 29.6878, "fid": "c104774", "idshex": "018035", "flight": "5A-OND", "typecode": "A319", "first_in": 1483441255.382115, "timestamp": 1483441247, "airport_arr": "IST", "airport_icao_code": "F-LTBY1", "lat": 39.8872, "airline_code2": "AAW970", "airline_code1": "8U970", "zone_range": "40,30,20,30", "_id": "c104774_1483441247"}, {"num4": 1856, "num5": 0, "num1": 122, "num2": 419, "num3": 0, "height": 20225, "last_modify": 1483441280.161382, "airport_dep": "STN", "str1": "4767", "lon": 1.0599, "fid": "c107daf", "idshex": "4C805C", "flight": "5B-DCR", "typecode": "A320", "first_in": 1483441280.161382, "timestamp": 1483441267, "airport_arr": "LCA", "airport_icao_code": "T-EGMC27", "lat": 51.4111, "airline_code2": "FCB613", "airline_code1": "CO613", "zone_range": "60,50,0,10", "_id": "c107daf_1483441267"}, {"num4": 960, "num5": 0, "num1": 276, "num2": 341, "num3": 0, "height": 30225, "last_modify": 1483441255.523002, "airport_dep": "LCA", "str1": "5655", "lon": 32.499, "fid": "c106f05", "idshex": "4C8060", "flight": "5B-DCV", "typecode": "A319", "first_in": 1483441255.523002, "timestamp": 1483441247, "airport_arr": "HER", "airport_icao_code": "F-LLBG2", "lat": 34.7617, "airline_code2": "FCB768", "airline_code1": "CO768", "zone_range": "40,30,30,40", "_id": "c106f05_1483441247"}, {"num4": 0, "num5": 0, "num1": 33, "num2": 20, "num3": 1, "height": 0, "last_modify": 1483441426.027382, "airport_dep": "LOS", "str1": "0512", "lon": 7.2402, "fid": "c106db1", "idshex": "0641DF", "flight": "5N-AIS", "typecode": "B735", "first_in": 1483441426.027382, "timestamp": 1483441401, "airport_arr": "", "airport_icao_code": "F-DNAA1", "lat": 9.0028, "airline_code2": "", "airline_code1": "", "zone_range": "10,0,0,10", "_id": "c106db1_1483441401"}, {"num4": 0, "num5": 0, "num1": 250, "num2": 9, "num3": 1, "height": 0, "last_modify": 1483441221.678754, "airport_dep": "LOS", "str1": "1212", "lon": 3.3269, "fid": "c1055f0", "idshex": "064167", "flight": "5N-BQB", "typecode": "A139", "first_in": 1483441221.678754, "timestamp": 1483441202, "airport_arr": "", "airport_icao_code": "F-DNMM6", "lat": 6.5772, "airline_code2": "5NBQB", "airline_code1": "", "zone_range": "10,0,0,10", "_id": "c1055f0_1483441202"}, {"num4": 3136, "num5": 0, "num1": 34, "num2": 285, "num3": 0, "height": 9525, "last_modify": 1483441425.934747, "airport_dep": "LOS", "str1": "0524", "lon": 3.4492, "fid": "c10800f", "idshex": "064179", "flight": "5N-BQM", "typecode": "B735", "first_in": 1483441425.934747, "timestamp": 1483441419, "airport_arr": "", "airport_icao_code": "F-DNMM6", "lat": 6.6201, "airline_code2": "63504", "airline_code1": "", "zone_range": "10,0,0,10", "_id": "c10800f_1483441419"}, {"num4": 0, "num5": 0, "num1": 56, "num2": 442, "num3": 0, "height": 35000, "last_modify": 1483441425.935888, "airport_dep": "LOS", "str1": "0526", "lon": 4.8033, "fid": "c10790d", "idshex": "064190", "flight": "5N-BQO", "typecode": "B733", "first_in": 1483441425.935888, "timestamp": 1483441420, "airport_arr": "ABV", "airport_icao_code": "F-DNAA1", "lat": 7.9212, "airline_code2": "APK7122", "airline_code1": "P47122", "zone_range": "10,0,0,10", "_id": "c10790d_1483441420"}, {"num4": 3776, "num5": 0, "num1": 181, "num2": 363, "num3": 0, "height": 13700, "last_modify": 1483441425.944692, "airport_dep": "ABV", "str1": "0000", "lon": 7.2069, "fid": "c107fec", "idshex": "0640A5", "flight": "5N-MJG", "typecode": "B737", "first_in": 1483441425.944692, "timestamp": 1483441420, "airport_arr": "ENU", "airport_icao_code": "F-DNAA1", "lat": 8.652, "airline_code2": "ARA410", "airline_code1": "W3410", "zone_range": "10,0,0,10", "_id": "c107fec_1483441420"}, {"num4": -2688, "num5": 0, "num1": 54, "num2": 452, "num3": 0, "height": 29300, "last_modify": 1483441425.945282, "airport_dep": "LOS", "str1": "0522", "lon": 6.1676, "fid": "c1075bb", "idshex": "0640C4", "flight": "5N-MJJ", "typecode": "B737", "first_in": 1483441425.945282, "timestamp": 1483441420, "airport_arr": "ABV", "airport_icao_code": "F-DNAA1", "lat": 8.8816, "airline_code2": "ARA724", "airline_code1": "W3724", "zone_range": "10,0,0,10", "_id": "c1075bb_1483441420"}, {"num4": 0, "num5": 0, "num1": 61, "num2": 471, "num3": 0, "height": 37000, "last_modify": 1483441231.027244, "airport_dep": "CKY", "str1": "2000", "lon": -11.0244, "fid": "c1077ab", "idshex": "05E054", "flight": "5T-CLE", "typecode": "B738", "first_in": 1483441231.027244, "timestamp": 1483441224, "airport_arr": "BKO", "airport_icao_code": "F-GABS3", "lat": 10.9448, "airline_code2": "MAI126", "airline_code1": "L6126", "zone_range": "20,10,-20,-10", "_id": "c1077ab_1483441224"}, {"num4": 0, "num5": 0, "num1": 345, "num2": 25, "num3": 1, "height": 0, "last_modify": 1483441236.277039, "airport_dep": "NBO", "str1": "6332", "lon": 72.8687, "fid": "c100734", "idshex": "04C147", "flight": "5Y-CYA", "typecode": "B738", "first_in": 1483441236.277039, "timestamp": 1483441169, "airport_arr": "BOM", "airport_icao_code": "T-VABB7", "lat": 19.0939, "airline_code2": "KQA210", "airline_code1": "KQ210", "zone_range": "20,10,70,80", "_id": "c100734_1483441169"}, {"num4": 1664, "num5": 0, "num1": 311, "num2": 445, "num3": 0, "height": 25875, "last_modify": 1483441413.641447, "airport_dep": "MBA", "str1": "3660", "lon": 38.8379, "fid": "c107a7e", "idshex": "04C148", "flight": "5Y-CYB", "typecode": "B738", "first_in": 1483441413.641447, "timestamp": 1483441404, "airport_arr": "NBO", "airport_icao_code": "F-HKMO1", "lat": -3.3025, "airline_code2": "KQA613", "airline_code1": "KQ613", "zone_range": "0,-10,30,40", "_id": "c107a7e_1483441404"}, {"num4": 0, "num5": 0, "num1": 22, "num2": 32, "num3": 1, "height": 0, "last_modify": 1483441423.996209, "airport_dep": "NBO", "str1": "1705", "lon": -0.1736, "fid": "c1014fe", "idshex": "04C03B", "flight": "5Y-KYD", "typecode": "B738", "first_in": 1483441423.996209, "timestamp": 1483441417, "airport_arr": "ACC", "airport_icao_code": "F-DGAA3", "lat": 5.5946, "airline_code2": "KQA504", "airline_code1": "KQ504", "zone_range": "10,0,-10,0", "_id": "c1014fe_1483441417"}, {"num4": -1024, "num5": 0, "num1": 202, "num2": 187, "num3": 0, "height": 3850, "last_modify": 1483441423.976698, "airport_dep": "NBO", "str1": "0000", "lon": -3.8431, "fid": "c1004a5", "idshex": "04C045", "flight": "5Y-KYF", "typecode": "B738", "first_in": 1483441423.976698, "timestamp": 1483441412, "airport_arr": "ABJ", "airport_icao_code": "T-DIAP4", "lat": 5.4616, "airline_code2": "KQA520", "airline_code1": "KQ520", "zone_range": "10,0,-10,0", "_id": "c1004a5_1483441412"}, {"num4": -64, "num5": 0, "num1": 306, "num2": 459, "num3": 0, "height": 37975, "last_modify": 1483441254.665015, "airport_dep": "NBO", "str1": "2074", "lon": 19.7733, "fid": "c100b35", "idshex": "04C119", "flight": "5Y-KZC", "typecode": "B788", "first_in": 1483441254.665015, "timestamp": 1483441247, "airport_arr": "CDG", "airport_icao_code": "F-LGTS1", "lat": 39.617, "airline_code2": "KQA112D", "airline_code1": "KQ112", "zone_range": "40,30,10,20", "_id": "c100b35_1483441247"}, {"num4": 0, "num5": 0, "num1": 323, "num2": 468, "num3": 0, "height": 38000, "last_modify": 1483441255.346328, "airport_dep": "NBO", "str1": "3346", "lon": 28.1322, "fid": "c102a72", "idshex": "04C11A", "flight": "5Y-KZD", "typecode": "B788", "first_in": 1483441255.346328, "timestamp": 1483441242, "airport_arr": "LHR", "airport_icao_code": "F-HECA1", "lat": 31.3376, "airline_code2": "KQA100", "airline_code1": "KQ100", "zone_range": "40,30,20,30", "_id": "c102a72_1483441242"}, {"num4": 0, "num5": 0, "num1": 331, "num2": 471, "num3": 0, "height": 38000, "last_modify": 1483441255.0304, "airport_dep": "NBO", "str1": "5503", "lon": 21.544, "fid": "c100d3f", "idshex": "04C11B", "flight": "5Y-KZE", "typecode": "B788", "first_in": 1483441255.0304, "timestamp": 1483441247, "airport_arr": "AMS", "airport_icao_code": "F-LGKV2", "lat": 39.398, "airline_code2": "KQA116", "airline_code1": "KQ116", "zone_range": "40,30,20,30", "_id": "c100d3f_1483441247"}, {"num4": 0, "num5": 0, "num1": 22, "num2": 515, "num3": 0, "height": 38975, "last_modify": 1483441392.782637, "airport_dep": "JNB", "str1": "2620", "lon": 29.1014, "fid": "c10743c", "idshex": "04C11C", "flight": "5Y-KZF", "typecode": "B788", "first_in": 1483441392.782637, "timestamp": 1483441385, "airport_arr": "NBO", "airport_icao_code": "F-FAHS1", "lat": -22.9586, "airline_code2": "KQA761", "airline_code1": "KQ761", "zone_range": "-20,-30,20,30", "_id": "c10743c_1483441385"}, {"num4": 0, "num5": 0, "num1": 163, "num2": 30, "num3": 1, "height": 0, "last_modify": 1483441248.114033, "airport_dep": "BKK", "str1": "6101", "lon": 113.9225, "fid": "c104c0b", "idshex": "04C159", "flight": "5Y-KZG", "typecode": "B788", "first_in": 1483441248.114033, "timestamp": 1483441232, "airport_arr": "HKG", "airport_icao_code": "F-ZGGG1", "lat": 22.31, "airline_code2": "KQA860", "airline_code1": "KQ860", "zone_range": "30,20,110,120", "_id": "c104c0b_1483441232"}, {"num4": 0, "num5": 0, "num1": 147, "num2": 470, "num3": 0, "height": 35000, "last_modify": 1483441233.391807, "airport_dep": "CAI", "str1": "7607", "lon": 40.1305, "fid": "c1058a3", "idshex": "890020", "flight": "7O-AFA", "typecode": "A320", "first_in": 1483441233.391807, "timestamp": 1483441224, "airport_arr": "", "airport_icao_code": "F-OEJN1", "lat": 19.297, "airline_code2": "IYE601", "airline_code1": "IY601", "zone_range": "20,10,40,50", "_id": "c1058a3_1483441224"}, {"num4": 0, "num5": 0, "num1": 28, "num2": 436, "num3": 0, "height": 35975, "last_modify": 1483441270.246857, "airport_dep": "ALG", "str1": "1223", "lon": 13.0805, "fid": "c106665", "idshex": "0A0086", "flight": "7T-VJB", "typecode": "A332", "first_in": 1483441270.246857, "timestamp": 1483441258, "airport_arr": "PEK", "airport_icao_code": "T-LIPT14", "lat": 43.4302, "airline_code2": "DAH3060", "airline_code1": "AH3060", "zone_range": "50,40,10,20", "_id": "c106665_1483441258"}, {"num4": 1600, "num5": 0, "num1": 298, "num2": 180, "num3": 0, "height": 2425, "last_modify": 1483441273.445581, "airport_dep": "MRS", "str1": "4057", "lon": 5.1674, "fid": "c107d14", "idshex": "0A0018", "flight": "7T-VJJ", "typecode": "B738", "first_in": 1483441273.445581, "timestamp": 1483441259, "airport_arr": "ALG", "airport_icao_code": "F-LFML2", "lat": 43.4689, "airline_code2": "DAH1023", "airline_code1": "AH1023", "zone_range": "50,40,0,10", "_id": "c107d14_1483441259"}, {"num4": 0, "num5": 0, "num1": 1, "num2": 438, "num3": 0, "height": 33975, "last_modify": 1483441273.338568, "airport_dep": "ALG", "str1": "5541", "lon": 4.7347, "fid": "c1071b3", "idshex": "0A001B", "flight": "7T-VJM", "typecode": "B738", "first_in": 1483441273.338568, "timestamp": 1483441260, "airport_arr": "LIL", "airport_icao_code": "F-LEGE3", "lat": 42.3479, "airline_code2": "DAH1048", "airline_code1": "AH1048", "zone_range": "50,40,0,10", "_id": "c1071b3_1483441260"}, {"num4": -1152, "num5": 0, "num1": 84, "num2": 233, "num3": 0, "height": 7200, "last_modify": 1483441272.96265, "airport_dep": "TLM", "str1": "5543", "lon": 2.7, "fid": "c1052f2", "idshex": "0A0020", "flight": "7T-VJN", "typecode": "B738", "first_in": 1483441272.96265, "timestamp": 1483441261, "airport_arr": "ORY", "airport_icao_code": "F-LFPO3", "lat": 48.5988, "airline_code2": "DAH1086", "airline_code1": "AH1086", "zone_range": "50,40,0,10", "_id": "c1052f2_1483441261"}, {"num4": -1216, "num5": 0, "num1": 284, "num2": 222, "num3": 0, "height": 5725, "last_modify": 1483441266.096555, "airport_dep": "ALG", "str1": "6342", "lon": -3.3216, "fid": "c106ae8", "idshex": "0A0022", "flight": "7T-VJP", "typecode": "B738", "first_in": 1483441266.096555, "timestamp": 1483441257, "airport_arr": "MAD", "airport_icao_code": "T-LETO22", "lat": 40.3004, "airline_code2": "DAH2006", "airline_code1": "AH2006", "zone_range": "50,40,-10,0", "_id": "c106ae8_1483441257"}, {"num4": 0, "num5": 0, "num1": 84, "num2": 274, "num3": 0, "height": 5950, "last_modify": 1483441269.94013, "airport_dep": "ALG", "str1": "3520", "lon": 11.8843, "fid": "c10661a", "idshex": "0A0026", "flight": "7T-VJS", "typecode": "B736", "first_in": 1483441269.94013, "timestamp": 1483441260, "airport_arr": "FCO", "airport_icao_code": "F-LIRF3", "lat": 41.3956, "airline_code2": "DAH2024", "airline_code1": "AH2024", "zone_range": "50,40,10,20", "_id": "c10661a_1483441260"}, {"num4": 3072, "num5": 0, "num1": 19, "num2": 382, "num3": 0, "height": 19200, "last_modify": 1483441254.734478, "airport_dep": "ALG", "str1": "4410", "lon": 3.3956, "fid": "c107eba", "idshex": "0A0028", "flight": "7T-VJU", "typecode": "B736", "first_in": 1483441254.734478, "timestamp": 1483441223, "airport_arr": "GVA", "airport_icao_code": "T-LEAL24", "lat": 37.225, "airline_code2": "DAH2046", "airline_code1": "AH2046", "zone_range": "40,30,0,10", "_id": "c107eba_1483441223"}, {"num4": 0, "num5": 0, "num1": 187, "num2": 0, "num3": 1, "height": 0, "last_modify": 1483441272.923319, "airport_dep": "CDG", "str1": "0000", "lon": 2.5941, "fid": "c107a95", "idshex": "0A0047", "flight": "7T-VJY", "typecode": "A332", "first_in": 1483441272.923319, "timestamp": 1483441256, "airport_arr": "ALG", "airport_icao_code": "T-LFPG1", "lat": 49.0007, "airline_code2": "DAH1003", "airline_code1": "AH1003", "zone_range": "50,40,0,10", "_id": "c107a95_1483441256"}, {"num4": 0, "num5": 0, "num1": 241, "num2": 422, "num3": 0, "height": 36000, "last_modify": 1483441254.699045, "airport_dep": "ALG", "str1": "4226", "lon": 0.9212, "fid": "c107b70", "idshex": "0A0048", "flight": "7T-VJZ", "typecode": "A332", "first_in": 1483441254.699045, "timestamp": 1483441244, "airport_arr": "CMN", "airport_icao_code": "F-LEAL3", "lat": 36.1035, "airline_code2": "DAH4012", "airline_code1": "AH4012", "zone_range": "40,30,0,10", "_id": "c107b70_1483441244"}, {"num4": -64, "num5": 0, "num1": 75, "num2": 474, "num3": 0, "height": 37000, "last_modify": 1483441267.573991, "airport_dep": "ORN", "str1": "1204", "lon": 23.4576, "fid": "c104ccd", "idshex": "0A004B", "flight": "7T-VKC", "typecode": "B738", "first_in": 1483441267.573991, "timestamp": 1483441260, "airport_arr": "IST", "airport_icao_code": "F-LGAV5", "lat": 40.3495, "airline_code2": "DAH3024", "airline_code1": "AH3024", "zone_range": "50,40,20,30", "_id": "c104ccd_1483441260"}, {"num4": 0, "num5": 0, "num1": 22, "num2": 422, "num3": 0, "height": 33975, "last_modify": 1483441273.580142, "airport_dep": "ALG", "str1": "5575", "lon": 6.2472, "fid": "c106b76", "idshex": "0A0076", "flight": "7T-VKF", "typecode": "B738", "first_in": 1483441273.580142, "timestamp": 1483441260, "airport_arr": "ETZ", "airport_icao_code": "F-LIMZ2", "lat": 43.8815, "airline_code2": "DAH1216", "airline_code1": "AH1216", "zone_range": "50,40,0,10", "_id": "c106b76_1483441260"}, {"num4": 1280, "num5": 0, "num1": 214, "num2": 310, "num3": 0, "height": 10375, "last_modify": 1483441273.37606, "airport_dep": "MRS", "str1": "4054", "lon": 4.9667, "fid": "c107c61", "idshex": "0A0079", "flight": "7T-VKI", "typecode": "B738", "first_in": 1483441273.37606, "timestamp": 1483441259, "airport_arr": "ORN", "airport_icao_code": "F-LFML1", "lat": 43.2591, "airline_code2": "DAH1069", "airline_code1": "AH1069", "zone_range": "50,40,0,10", "_id": "c107c61_1483441259"}, {"num4": 0, "num5": 0, "num1": 350, "num2": 411, "num3": 0, "height": 34000, "last_modify": 1483441273.410812, "airport_dep": "BSK", "str1": "7330", "lon": 5.072, "fid": "c106b52", "idshex": "0A008D", "flight": "7T-VKN", "typecode": "B738", "first_in": 1483441273.410812, "timestamp": 1483441259, "airport_arr": "ORY", "airport_icao_code": "F-LFMV1", "lat": 43.4923, "airline_code2": "DAH1124", "airline_code1": "AH1124", "zone_range": "50,40,0,10", "_id": "c106b52_1483441259"}, {"num4": -960, "num5": 0, "num1": 159, "num2": 447, "num3": 0, "height": 30050, "last_modify": 1483441254.773378, "airport_dep": "MRS", "str1": "5662", "lon": 7.0726, "fid": "c106e39", "idshex": "0A008E", "flight": "7T-VKO", "typecode": "B738", "first_in": 1483441254.773378, "timestamp": 1483441245, "airport_arr": "AAE", "airport_icao_code": "T-LIEA1", "lat": 38.4072, "airline_code2": "DAH1151", "airline_code1": "AH1151", "zone_range": "40,30,0,10", "_id": "c106e39_1483441245"}, {"num4": 0, "num5": 0, "num1": 1, "num2": 410, "num3": 0, "height": 36000, "last_modify": 1483441273.307167, "airport_dep": "ALG", "str1": "5511", "lon": 4.6171, "fid": "c106e17", "idshex": "0A0090", "flight": "7T-VKQ", "typecode": "B738", "first_in": 1483441273.307167, "timestamp": 1483441259, "airport_arr": "CDG", "airport_icao_code": "F-LFML1", "lat": 43.5453, "airline_code2": "DAH1000", "airline_code1": "AH1000", "zone_range": "50,40,0,10", "_id": "c106e17_1483441259"}, {"num4": -64, "num5": 0, "num1": 1, "num2": 431, "num3": 0, "height": 36000, "last_modify": 1483441273.31282, "airport_dep": "ALG", "str1": "5503", "lon": 4.7098, "fid": "c106faa", "idshex": "0A0091", "flight": "7T-VKR", "typecode": "B738", "first_in": 1483441273.31282, "timestamp": 1483441253, "airport_arr": "LHR", "airport_icao_code": "F-LFML1", "lat": 42.7946, "airline_code2": "DAH2054", "airline_code1": "AH2054", "zone_range": "50,40,0,10", "_id": "c106faa_1483441253"}, {"num4": 896, "num5": 0, "num1": 88, "num2": 206, "num3": 0, "height": 9800, "last_modify": 1483441041.881393, "airport_dep": "ALG", "str1": "0000", "lon": 3.7618, "fid": "c107d98", "idshex": "0A0083", "flight": "7T-VUT", "typecode": "AT76", "first_in": 1483441041.881393, "timestamp": 1483441034, "airport_arr": "AAE", "airport_icao_code": "T-LELC2", "lat": 36.6899, "airline_code2": "DAH6172", "airline_code1": "AH6172", "zone_range": "40,30,0,10", "_id": "c107d98_1483441034"}, {"num4": 1152, "num5": 0, "num1": 254, "num2": 181, "num3": 0, "height": 6875, "last_modify": 1483441254.736249, "airport_dep": "ALG", "str1": "0000", "lon": 2.8744, "fid": "c107fea", "idshex": "0A0088", "flight": "7T-VUV", "typecode": "AT76", "first_in": 1483441254.736249, "timestamp": 1483441234, "airport_arr": "ORN", "airport_icao_code": "T-LELC2", "lat": 36.6659, "airline_code2": "DAH6182", "airline_code1": "AH6182", "zone_range": "40,30,0,10", "_id": "c107fea_1483441234"}, {"num4": -64, "num5": 0, "num1": 347, "num2": 148, "num3": 0, "height": 5100, "last_modify": 1483441223.147223, "airport_dep": "MLE", "str1": "0000", "lon": 73.4613, "fid": "c107466", "idshex": "05A057", "flight": "8Q-AMD", "typecode": "DH8B", "first_in": 1483441223.147223, "timestamp": 1483441217, "airport_arr": "", "airport_icao_code": "F-VRMM1", "lat": 4.5028, "airline_code2": "", "airline_code1": "", "zone_range": "10,0,70,80", "_id": "c107466_1483441217"}, {"num4": 0, "num5": 0, "num1": 310, "num2": 131, "num3": 0, "height": 2500, "last_modify": 1483441011.245145, "airport_dep": "", "str1": "3406", "lon": 73.0458, "fid": "c107ba0", "idshex": "05A064", "flight": "8Q-IAE", "typecode": "DHC6", "first_in": 1483441011.245145, "timestamp": 1483441004, "airport_arr": "", "airport_icao_code": "F-VRMK1", "lat": 2.5646, "airline_code2": "8QIAE", "airline_code1": "", "zone_range": "10,0,70,80", "_id": "c107ba0_1483441004"}, {"num4": -2112, "num5": 0, "num1": 177, "num2": 257, "num3": 0, "height": 13325, "last_modify": 1483441223.073941, "airport_dep": "MLE", "str1": "0000", "lon": 72.9796, "fid": "c106d9c", "idshex": "05A05A", "flight": "8Q-IAK", "typecode": "DH8C", "first_in": 1483441223.073941, "timestamp": 1483441214, "airport_arr": "", "airport_icao_code": "F-VRMT1", "lat": 0.7838, "airline_code2": "DQA146", "airline_code1": "Q2146", "zone_range": "10,0,70,80", "_id": "c106d9c_1483441214"}, {"num4": -1024, "num5": 0, "num1": 46, "num2": 105, "num3": 0, "height": 425, "last_modify": 1483441223.081724, "airport_dep": "MLE", "str1": "0000", "lon": 73.1391, "fid": "c10732b", "idshex": "05A006", "flight": "8Q-IAO", "typecode": "DH8C", "first_in": 1483441223.081724, "timestamp": 1483441215, "airport_arr": "GAN", "airport_icao_code": "F-VRMK1", "lat": 2.1967, "airline_code2": "DQA2709", "airline_code1": "Q22709", "zone_range": "10,0,70,80", "_id": "c10732b_1483441215"}, {"num4": 0, "num5": 0, "num1": 179, "num2": 270, "num3": 0, "height": 22000, "last_modify": 1483441011.340145, "airport_dep": "", "str1": "0000", "lon": 73.4372, "fid": "c107d5a", "idshex": "05A004", "flight": "8Q-IAP", "typecode": "DH8C", "first_in": 1483441011.340145, "timestamp": 1483441006, "airport_arr": "", "airport_icao_code": "T-MLAT5", "lat": 0.1343, "airline_code2": "", "airline_code1": "", "zone_range": "10,0,70,80", "_id": "c107d5a_1483441006"}, {"num4": 0, "num5": 0, "num1": 98, "num2": 13, "num3": 1, "height": 0, "last_modify": 1483441223.146641, "airport_dep": "KDO", "str1": "0000", "lon": 73.4344, "fid": "c10781a", "idshex": "05A06E", "flight": "8Q-IAT", "typecode": "DH8C", "first_in": 1483441223.146641, "timestamp": 1483441215, "airport_arr": "", "airport_icao_code": "F-VRMO1", "lat": 0.7282, "airline_code2": "8QIAT", "airline_code1": "", "zone_range": "10,0,70,80", "_id": "c10781a_1483441215"}, {"num4": 0, "num5": 0, "num1": 69, "num2": 0, "num3": 1, "height": 50, "last_modify": 1483441223.178694, "airport_dep": "", "str1": "0204", "lon": 73.5329, "fid": "c106fab", "idshex": "05A00A", "flight": "8Q-MAD", "typecode": "DHC6", "first_in": 1483441223.178694, "timestamp": 1483441217, "airport_arr": "", "airport_icao_code": "F-VRMM2", "lat": 4.189, "airline_code2": "8QMAD", "airline_code1": "", "zone_range": "10,0,70,80", "_id": "c106fab_1483441217"}, {"num4": -512, "num5": 0, "num1": 212, "num2": 110, "num3": 0, "height": 400, "last_modify": 1483441011.242197, "airport_dep": "", "str1": "0000", "lon": 72.7527, "fid": "c106b78", "idshex": "05A023", "flight": "8Q-MAJ", "typecode": "DHC6", "first_in": 1483441011.242197, "timestamp": 1483441004, "airport_arr": "", "airport_icao_code": "F-VRMV1", "lat": 3.8661, "airline_code2": "8QMAJ", "airline_code1": "", "zone_range": "10,0,70,80", "_id": "c106b78_1483441004"}, {"num4": -128, "num5": 0, "num1": 22, "num2": 142, "num3": 0, "height": 5525, "last_modify": 1483441223.082477, "airport_dep": "", "str1": "0000", "lon": 73.1794, "fid": "c106b34", "idshex": "05A012", "flight": "8Q-MAO", "typecode": "DHC6", "first_in": 1483441223.082477, "timestamp": 1483441217, "airport_arr": "", "airport_icao_code": "F-VRMM2", "lat": 3.3878, "airline_code2": "8QMAO", "airline_code1": "", "zone_range": "10,0,70,80", "_id": "c106b34_1483441217"}, {"num4": 0, "num5": 0, "num1": 81, "num2": 0, "num3": 1, "height": 0, "last_modify": 1483441223.153204, "airport_dep": "", "str1": "0000", "lon": 73.5325, "fid": "c1062f3", "idshex": "05A01F", "flight": "8Q-MAW", "typecode": "DHC6", "first_in": 1483441223.153204, "timestamp": 1483441202, "airport_arr": "", "airport_icao_code": "F-VRMM2", "lat": 4.1913, "airline_code2": "8QMAW", "airline_code1": "", "zone_range": "10,0,70,80", "_id": "c1062f3_1483441202"}, {"num4": 0, "num5": 0, "num1": 205, "num2": 10, "num3": 1, "height": 0, "last_modify": 1483441011.437407, "airport_dep": "VAM", "str1": "0207", "lon": 73.5337, "fid": "c1073b2", "idshex": "05A026", "flight": "8Q-MBA", "typecode": "DHC6", "first_in": 1483441011.437407, "timestamp": 1483440920, "airport_arr": "", "airport_icao_code": "F-VRMM2", "lat": 4.1901, "airline_code2": "8QMBA", "airline_code1": "", "zone_range": "10,0,70,80", "_id": "c1073b2_1483440920"}, {"num4": 0, "num5": 0, "num1": 168, "num2": 158, "num3": 0, "height": 5450, "last_modify": 1483441426.115435, "airport_dep": "", "str1": "0221", "lon": 73.3978, "fid": "c1074df", "idshex": "05A024", "flight": "8Q-MBB", "typecode": "DHC6", "first_in": 1483441426.115435, "timestamp": 1483441420, "airport_arr": "", "airport_icao_code": "F-VRMD1", "lat": 5.4541, "airline_code2": "8QMBB", "airline_code1": "", "zone_range": "10,0,70,80", "_id": "c1074df_1483441420"}, {"num4": -128, "num5": 0, "num1": 177, "num2": 160, "num3": 0, "height": 5600, "last_modify": 1483441426.140255, "airport_dep": "", "str1": "0000", "lon": 73.5558, "fid": "c107c51", "idshex": "05A038", "flight": "8Q-MBF", "typecode": "DHC6", "first_in": 1483441426.140255, "timestamp": 1483441420, "airport_arr": "", "airport_icao_code": "F-VRMD1", "lat": 5.0125, "airline_code2": "8QMBF", "airline_code1": "", "zone_range": "10,0,70,80", "_id": "c107c51_1483441420"}, {"num4": 0, "num5": 0, "num1": 247, "num2": 494, "num3": 0, "height": 36000, "last_modify": 1483441426.144695, "airport_dep": "PVG", "str1": "5032", "lon": 76.7405, "fid": "c0fe2d9", "idshex": "05A065", "flight": "8Q-MEF", "typecode": "B763", "first_in": 1483441426.144695, "timestamp": 1483441420, "airport_arr": "MLE", "airport_icao_code": "F-VRMD1", "lat": 5.2888, "airline_code2": "MEG199", "airline_code1": "LV199", "zone_range": "10,0,70,80", "_id": "c0fe2d9_1483441420"}, {"num4": 0, "num5": 0, "num1": 334, "num2": 130, "num3": 0, "height": 2500, "last_modify": 1483441426.111788, "airport_dep": "MLE", "str1": "0000", "lon": 73.3541, "fid": "c107c57", "idshex": "05A035", "flight": "8Q-TAB", "typecode": "DHC6", "first_in": 1483441426.111788, "timestamp": 1483441418, "airport_arr": "", "airport_icao_code": "F-VRMM2", "lat": 4.5399, "airline_code2": "8QTAB", "airline_code1": "", "zone_range": "10,0,70,80", "_id": "c107c57_1483441418"}, {"num4": 0, "num5": 0, "num1": 229, "num2": 119, "num3": 0, "height": 600, "last_modify": 1483441011.238591, "airport_dep": "DRV", "str1": "0000", "lon": 72.9752, "fid": "c107cc5", "idshex": "05A061", "flight": "8Q-TAD", "typecode": "DHC6", "first_in": 1483441011.238591, "timestamp": 1483441004, "airport_arr": "", "airport_icao_code": "F-VRMD1", "lat": 4.9982, "airline_code2": "8QTAD", "airline_code1": "", "zone_range": "10,0,70,80", "_id": "c107cc5_1483441004"}, {"num4": 64, "num5": 0, "num1": 167, "num2": 155, "num3": 0, "height": 5500, "last_modify": 1483441426.092674, "airport_dep": "", "str1": "0000", "lon": 73.3133, "fid": "c10755b", "idshex": "05A063", "flight": "8Q-TAE", "typecode": "DHC6", "first_in": 1483441426.092674, "timestamp": 1483441420, "airport_arr": "", "airport_icao_code": "F-VRMD1", "lat": 5.6499, "airline_code2": "8QTAE", "airline_code1": "", "zone_range": "10,0,70,80", "_id": "c10755b_1483441420"}, {"num4": -320, "num5": 0, "num1": 266, "num2": 147, "num3": 0, "height": 625, "last_modify": 1483441011.245937, "airport_dep": "MLE", "str1": "0243", "lon": 73.0156, "fid": "c10788c", "idshex": "05A04D", "flight": "8Q-TME", "typecode": "DHC6", "first_in": 1483441011.245937, "timestamp": 1483440987, "airport_arr": "", "airport_icao_code": "F-VRMM2", "lat": 4.2539, "airline_code2": "8QTME", "airline_code1": "", "zone_range": "10,0,70,80", "_id": "c10788c_1483440987"}, {"num4": 0, "num5": 0, "num1": 180, "num2": 6, "num3": 1, "height": 0, "last_modify": 1483441223.178389, "airport_dep": "", "str1": "0247", "lon": 73.5337, "fid": "c107248", "idshex": "05A049", "flight": "8Q-TMI", "typecode": "DHC6", "first_in": 1483441223.178389, "timestamp": 1483441217, "airport_arr": "", "airport_icao_code": "F-VRMM2", "lat": 4.1895, "airline_code2": "8QTMI", "airline_code1": "", "zone_range": "10,0,70,80", "_id": "c107248_1483441217"}, {"num4": 0, "num5": 0, "num1": 165, "num2": 145, "num3": 0, "height": 2000, "last_modify": 1483441426.136342, "airport_dep": "", "str1": "0000", "lon": 73.5753, "fid": "c106e95", "idshex": "05A04A", "flight": "8Q-TMJ", "typecode": "DHC6", "first_in": 1483441426.136342, "timestamp": 1483441420, "airport_arr": "", "airport_icao_code": "F-VRMD1", "lat": 4.6284, "airline_code2": "8QTMJ", "airline_code1": "", "zone_range": "10,0,70,80", "_id": "c106e95_1483441420"}, {"num4": -128, "num5": 0, "num1": 183, "num2": 153, "num3": 0, "height": 600, "last_modify": 1483441426.141663, "airport_dep": "", "str1": "0000", "lon": 73.5903, "fid": "c106d64", "idshex": "05A04B", "flight": "8Q-TMK", "typecode": "DHC6", "first_in": 1483441426.141663, "timestamp": 1483441417, "airport_arr": "", "airport_icao_code": "T-VRMV1", "lat": 4.3748, "airline_code2": "8QTMK", "airline_code1": "", "zone_range": "10,0,70,80", "_id": "c106d64_1483441417"}, {"num4": 0, "num5": 0, "num1": 177, "num2": 154, "num3": 0, "height": 2100, "last_modify": 1483441426.040348, "airport_dep": "", "str1": "0000", "lon": 73.0091, "fid": "c107f42", "idshex": "05A04E", "flight": "8Q-TMN", "typecode": "DHC6", "first_in": 1483441426.040348, "timestamp": 1483441420, "airport_arr": "", "airport_icao_code": "F-VRMH2", "lat": 6.7775, "airline_code2": "8QTMN", "airline_code1": "", "zone_range": "10,0,70,80", "_id": "c107f42_1483441420"}, {"num4": 0, "num5": 0, "num1": 7, "num2": 125, "num3": 0, "height": 600, "last_modify": 1483441426.141019, "airport_dep": "", "str1": "0000", "lon": 73.5806, "fid": "c10755c", "idshex": "05A04F", "flight": "8Q-TMO", "typecode": "DHC6", "first_in": 1483441426.141019, "timestamp": 1483441406, "airport_arr": "", "airport_icao_code": "F-VRMM1", "lat": 4.1017, "airline_code2": "8QTMO", "airline_code1": "", "zone_range": "10,0,70,80", "_id": "c10755c_1483441406"}, {"num4": -512, "num5": 0, "num1": 350, "num2": 75, "num3": 0, "height": 500, "last_modify": 1483441011.437687, "airport_dep": "", "str1": "0000", "lon": 73.5335, "fid": "c107038", "idshex": "05A051", "flight": "8Q-TMP", "typecode": "DHC6", "first_in": 1483441011.437687, "timestamp": 1483441002, "airport_arr": "", "airport_icao_code": "F-VRMM2", "lat": 4.1763, "airline_code2": "8QTMP", "airline_code1": "", "zone_range": "10,0,70,80", "_id": "c107038_1483441002"}, {"num4": 0, "num5": 0, "num1": 180, "num2": 6, "num3": 1, "height": 0, "last_modify": 1483441426.024032, "airport_dep": "", "str1": "0237", "lon": 72.8167, "fid": "c107b0e", "idshex": "05A052", "flight": "8Q-TMR", "typecode": "DHC6", "first_in": 1483441426.024032, "timestamp": 1483441419, "airport_arr": "", "airport_icao_code": "F-VRMV1", "lat": 3.6481, "airline_code2": "8QTMR", "airline_code1": "", "zone_range": "10,0,70,80", "_id": "c107b0e_1483441419"}, {"num4": 0, "num5": 0, "num1": 198, "num2": 6, "num3": 1, "height": 0, "last_modify": 1483441223.18002, "airport_dep": "", "str1": "0000", "lon": 73.5373, "fid": "c10714d", "idshex": "05A053", "flight": "8Q-TMS", "typecode": "DHC6", "first_in": 1483441223.18002, "timestamp": 1483441202, "airport_arr": "", "airport_icao_code": "F-VRMM2", "lat": 4.1944, "airline_code2": "8QTMS", "airline_code1": "", "zone_range": "10,0,70,80", "_id": "c10714d_1483441202"}, {"num4": -256, "num5": 0, "num1": 15, "num2": 65, "num3": 0, "height": 150, "last_modify": 1483441223.181544, "airport_dep": "", "str1": "0000", "lon": 73.5354, "fid": "c107323", "idshex": "05A029", "flight": "8Q-TMV", "typecode": "DHC6", "first_in": 1483441223.181544, "timestamp": 1483441216, "airport_arr": "", "airport_icao_code": "T-VRMV1", "lat": 4.1843, "airline_code2": "8QTMV", "airline_code1": "", "zone_range": "10,0,70,80", "_id": "c107323_1483441216"}, {"num4": -128, "num5": 0, "num1": 141, "num2": 362, "num3": 0, "height": 22965, "last_modify": 1483441270.185798, "airport_dep": "MUC", "str1": "7140", "lon": 12.5713, "fid": "c107c6d", "idshex": "501DA8", "flight": "9A-CQA", "typecode": "DH8D", "first_in": 1483441270.185798, "timestamp": 1483441260, "airport_arr": "SPU", "airport_icao_code": "T-MLAT1", "lat": 47.5509, "airline_code2": "CTN439P", "airline_code1": "OU4439", "zone_range": "50,40,10,20", "_id": "c107c6d_1483441260"}, {"num4": 0, "num5": 0, "num1": 298, "num2": 278, "num3": 0, "height": 24000, "last_modify": 1483441270.522075, "airport_dep": "ZAG", "str1": "7310", "lon": 15.2278, "fid": "c107bc7", "idshex": "501DA9", "flight": "9A-CQB", "typecode": "DH8D", "first_in": 1483441270.522075, "timestamp": 1483441260, "airport_arr": "ZRH", "airport_icao_code": "T-MLAT1", "lat": 46.3318, "airline_code2": "CTN460", "airline_code1": "OU460", "zone_range": "50,40,10,20", "_id": "c107bc7_1483441260"}, {"num4": 0, "num5": 0, "num1": 131, "num2": 378, "num3": 0, "height": 25000, "last_modify": 1483441269.889852, "airport_dep": "BRU", "str1": "7150", "lon": 11.7477, "fid": "c106d3f", "idshex": "501DC5", "flight": "9A-CQD", "typecode": "DH8D", "first_in": 1483441269.889852, "timestamp": 1483441260, "airport_arr": "ZAG", "airport_icao_code": "T-MLAT1", "lat": 48.3865, "airline_code2": "CTN56E", "airline_code1": "OU457", "zone_range": "50,40,10,20", "_id": "c106d3f_1483441260"}, {"num4": 1792, "num5": 0, "num1": 153, "num2": 432, "num3": 0, "height": 28500, "last_modify": 1483441270.764915, "airport_dep": "ZAG", "str1": "4514", "lon": 16.8598, "fid": "c10787e", "idshex": "501D1E", "flight": "9A-CTI", "typecode": "A319", "first_in": 1483441270.764915, "timestamp": 1483441259, "airport_arr": "DBV", "airport_icao_code": "F-LDZA4", "lat": 44.8488, "airline_code2": "CTN8Y", "airline_code1": "OU668", "zone_range": "50,40,10,20", "_id": "c10787e_1483441259"}, {"num4": 832, "num5": 0, "num1": 181, "num2": 187, "num3": 0, "height": 3300, "last_modify": 1483441280.472153, "airport_dep": "AMS", "str1": "3176", "lon": 4.6783, "fid": "c107dd6", "idshex": "501D1F", "flight": "9A-CTJ", "typecode": "A320", "first_in": 1483441280.472153, "timestamp": 1483441250, "airport_arr": "ZAG", "airport_icao_code": "F-EHAM1", "lat": 52.2559, "airline_code2": "CTN451", "airline_code1": "OU451", "zone_range": "60,50,0,10", "_id": "c107dd6_1483441250"}, {"num4": 2944, "num5": 0, "num1": 73, "num2": 287, "num3": 0, "height": 9725, "last_modify": 1483441280.545974, "airport_dep": "AMS", "str1": "0155", "lon": 4.9823, "fid": "c10683a", "idshex": "4D201F", "flight": "9H-AEI", "typecode": "A320", "first_in": 1483441280.545974, "timestamp": 1483441268, "airport_arr": "MLA", "airport_icao_code": "F-EHAM1", "lat": 52.1932, "airline_code2": "AMC395", "airline_code1": "KM395", "zone_range": "60,50,0,10", "_id": "c10683a_1483441268"}, {"num4": -1920, "num5": 0, "num1": 316, "num2": 343, "num3": 0, "height": 19800, "last_modify": 1483441280.153949, "airport_dep": "MLA", "str1": "4013", "lon": 0.9729, "fid": "c104a1f", "idshex": "4D2025", "flight": "9H-AEO", "typecode": "A320", "first_in": 1483441280.153949, "timestamp": 1483441262, "airport_arr": "LGW", "airport_icao_code": "F-EGLL1", "lat": 50.4717, "airline_code2": "AMC116", "airline_code1": "KM116", "zone_range": "60,50,0,10", "_id": "c104a1f_1483441262"}, {"num4": 0, "num5": 0, "num1": 303, "num2": 419, "num3": 0, "height": 31999, "last_modify": 1483441255.423593, "airport_dep": "TLV", "str1": "7264", "lon": 30.6251, "fid": "c10705d", "idshex": "4D2150", "flight": "9H-AMY", "typecode": "CRJ2", "first_in": 1483441255.423593, "timestamp": 1483441244, "airport_arr": "", "airport_icao_code": "T-MLAT1", "lat": 34.4685, "airline_code2": "AXY221", "airline_code1": "", "zone_range": "40,30,30,40", "_id": "c10705d_1483441244"}, {"num4": 1856, "num5": 0, "num1": 336, "num2": 318, "num3": 0, "height": 20994, "last_modify": 1483441273.687259, "airport_dep": "CEQ", "str1": "1000", "lon": 7.0019, "fid": "c107f26", "idshex": "4D20E1", "flight": "9H-CLG", "typecode": "CRJ2", "first_in": 1483441273.687259, "timestamp": 1483441260, "airport_arr": "", "airport_icao_code": "T-MLAT1", "lat": 43.97, "airline_code2": "AXY306", "airline_code1": "", "zone_range": "50,40,0,10", "_id": "c107f26_1483441260"}, {"num4": 0, "num5": 0, "num1": 123, "num2": 427, "num3": 0, "height": 33000, "last_modify": 1483441255.017906, "airport_dep": "NAP", "str1": "1205", "lon": 20.2962, "fid": "c106a1d", "idshex": "4D2124", "flight": "9H-GTC", "typecode": "B734", "first_in": 1483441255.017906, "timestamp": 1483441247, "airport_arr": "", "airport_icao_code": "F-LGRX2", "lat": 36.3769, "airline_code2": "HAT304", "airline_code1": "", "zone_range": "40,30,20,30", "_id": "c106a1d_1483441247"}, {"num4": 0, "num5": 0, "num1": 102, "num2": 594, "num3": 0, "height": 39000, "last_modify": 1483441244.212925, "airport_dep": "CAI", "str1": "3372", "lon": 39.8072, "fid": "c106a0f", "idshex": "706010", "flight": "9K-ADE", "typecode": "B744", "first_in": 1483441244.212925, "timestamp": 1483441235, "airport_arr": "KWI", "airport_icao_code": "F-OERF1", "lat": 29.2138, "airline_code2": "KAC542", "airline_code1": "KU542", "zone_range": "30,20,30,40", "_id": "c106a0f_1483441235"}, {"num4": 0, "num5": 0, "num1": 104, "num2": 552, "num3": 0, "height": 34975, "last_modify": 1483441255.723632, "airport_dep": "IST", "str1": "1004", "lon": 43.7337, "fid": "c103fea", "idshex": "706028", "flight": "9K-AKH", "typecode": "A320", "first_in": 1483441255.723632, "timestamp": 1483441248, "airport_arr": "KWI", "airport_icao_code": "F-ORER4", "lat": 37.8914, "airline_code2": "KAC154", "airline_code1": "KU154", "zone_range": "40,30,40,50", "_id": "c103fea_1483441248"}, {"num4": -960, "num5": 0, "num1": 321, "num2": 434, "num3": 0, "height": 27875, "last_modify": 1483441245.493842, "airport_dep": "DOH", "str1": "3225", "lon": 49.2199, "fid": "c10727f", "idshex": "706029", "flight": "9K-AKI", "typecode": "A320", "first_in": 1483441245.493842, "timestamp": 1483441239, "airport_arr": "KWI", "airport_icao_code": "F-OBBI1", "lat": 27.8456, "airline_code2": "KAC618", "airline_code1": "KU618", "zone_range": "30,20,40,50", "_id": "c10727f_1483441239"}, {"num4": 0, "num5": 0, "num1": 244, "num2": 18, "num3": 1, "height": 0, "last_modify": 1483441245.459467, "airport_dep": "MCT", "str1": "4013", "lon": 47.9804, "fid": "c10475f", "idshex": "70602B", "flight": "9K-AKK", "typecode": "A320", "first_in": 1483441245.459467, "timestamp": 1483441236, "airport_arr": "KWI", "airport_icao_code": "F-OKBK2", "lat": 29.2388, "airline_code2": "KAC692", "airline_code1": "KU692", "zone_range": "30,20,40,50", "_id": "c10475f_1483441236"}, {"num4": 0, "num5": 0, "num1": 334, "num2": 100, "num3": 0, "height": 0, "last_modify": 1483441447.549805, "airport_dep": "JED", "str1": "5205", "lon": 47.9862, "fid": "c105d2e", "idshex": "706015", "flight": "9K-ANC", "typecode": "A343", "first_in": 1483441447.549805, "timestamp": 1483441390, "airport_arr": "KWI", "airport_icao_code": "F-OKBK1", "lat": 29.2353, "airline_code2": "KAC788", "airline_code1": "KU788", "zone_range": "30,20,40,50", "_id": "c105d2e_1483441390"}, {"num4": 0, "num5": 0, "num1": 299, "num2": 579, "num3": 0, "height": 36000, "last_modify": 1483441267.843922, "airport_dep": "KWI", "str1": "2247", "lon": 26.378, "fid": "c10362f", "idshex": "706017", "flight": "9K-AOA", "typecode": "B772", "first_in": 1483441267.843922, "timestamp": 1483441258, "airport_arr": "SNN", "airport_icao_code": "T-LRBS1", "lat": 43.9041, "airline_code2": "KAC117", "airline_code1": "KU117", "zone_range": "50,40,20,30", "_id": "c10362f_1483441258"}, {"num4": -64, "num5": 0, "num1": 115, "num2": 519, "num3": 0, "height": 39000, "last_modify": 1483441266.815993, "airport_dep": "JFK", "str1": "2702", "lon": 32.3174, "fid": "c0fd294", "idshex": "706018", "flight": "9K-AOB", "typecode": "B772", "first_in": 1483441266.815993, "timestamp": 1483441259, "airport_arr": "KWI", "airport_icao_code": "F-LTAD3", "lat": 41.5845, "airline_code2": "KAC118", "airline_code1": "KU118", "zone_range": "50,40,30,40", "_id": "c0fd294_1483441259"}, {"num4": 0, "num5": 0, "num1": 331, "num2": 478, "num3": 0, "height": 38000, "last_modify": 1483441255.551534, "airport_dep": "KWI", "str1": "1417", "lon": 33.7557, "fid": "c104eb3", "idshex": "706056", "flight": "9K-AOC", "typecode": "B77W", "first_in": 1483441255.551534, "timestamp": 1483441248, "airport_arr": "BEY", "airport_icao_code": "F-LLBS1", "lat": 30.3866, "airline_code2": "KAC501", "airline_code1": "KU501", "zone_range": "40,30,30,40", "_id": "c104eb3_1483441248"}, {"num4": 0, "num5": 0, "num1": 305, "num2": 434, "num3": 0, "height": 37975, "last_modify": 1483441268.011932, "airport_dep": "KWI", "str1": "3245", "lon": 28.1792, "fid": "c103805", "idshex": "70604D", "flight": "9K-APA", "typecode": "A332", "first_in": 1483441268.011932, "timestamp": 1483441258, "airport_arr": "FRA", "airport_icao_code": "T-LRBS1", "lat": 43.3859, "airline_code2": "KAC171", "airline_code1": "KU171", "zone_range": "50,40,20,30", "_id": "c103805_1483441258"}, {"num4": 0, "num5": 0, "num1": 259, "num2": 352, "num3": 0, "height": 40000, "last_modify": 1483441256.887021, "airport_dep": "DAC", "str1": "0000", "lon": 56.3591, "fid": "c101740", "idshex": "70604E", "flight": "9K-APB", "typecode": "A332", "first_in": 1483441256.887021, "timestamp": 1483441247, "airport_arr": "KWI", "airport_icao_code": "F-OIKK1", "lat": 30.1941, "airline_code2": "KAC286", "airline_code1": "KU286", "zone_range": "40,30,50,60", "_id": "c101740_1483441247"}, {"num4": 0, "num5": 0, "num1": 297, "num2": 411, "num3": 0, "height": 36000, "last_modify": 1483441244.549533, "airport_dep": "DXB", "str1": "0553", "lon": 52.7187, "fid": "c1073a3", "idshex": "70604F", "flight": "9K-APC", "typecode": "A332", "first_in": 1483441244.549533, "timestamp": 1483441239, "airport_arr": "KWI", "airport_icao_code": "F-OTBD1", "lat": 26.0332, "airline_code2": "KAC672", "airline_code1": "KU672", "zone_range": "30,20,50,60", "_id": "c1073a3_1483441239"}, {"num4": 0, "num5": 0, "num1": 301, "num2": 418, "num3": 0, "height": 40000, "last_modify": 1483441267.677208, "airport_dep": "KWI", "str1": "3272", "lon": 24.6985, "fid": "c102f2a", "idshex": "706050", "flight": "9K-APD", "typecode": "A332", "first_in": 1483441267.677208, "timestamp": 1483441260, "airport_arr": "LHR", "airport_icao_code": "F-LBGO2", "lat": 44.7206, "airline_code2": "KAC101", "airline_code1": "KU101", "zone_range": "50,40,20,30", "_id": "c102f2a_1483441260"}, {"num4": -1280, "num5": 0, "num1": 178, "num2": 345, "num3": 0, "height": 16725, "last_modify": 1483441244.166261, "airport_dep": "KWI", "str1": "1427", "lon": 39.105, "fid": "c1055b9", "idshex": "70620B", "flight": "9K-CAJ", "typecode": "A320", "first_in": 1483441244.166261, "timestamp": 1483441234, "airport_arr": "JED", "airport_icao_code": "F-OEMA1", "lat": 22.5006, "airline_code2": "JZR776", "airline_code1": "J9776", "zone_range": "30,20,30,40", "_id": "c1055b9_1483441234"}, {"num4": 0, "num5": 0, "num1": 59, "num2": 34, "num3": 1, "height": 0, "last_modify": 1483441245.460126, "airport_dep": "KWI", "str1": "0000", "lon": 47.9817, "fid": "c107716", "idshex": "70620E", "flight": "9K-CAM", "typecode": "A320", "first_in": 1483441245.460126, "timestamp": 1483441236, "airport_arr": "DXB", "airport_icao_code": "F-OKBK2", "lat": 29.2379, "airline_code2": "JZR176", "airline_code1": "J9176", "zone_range": "30,20,40,50", "_id": "c107716_1483441236"}, {"num4": 1600, "num5": 0, "num1": 122, "num2": 344, "num3": 0, "height": 11450, "last_modify": 1483441244.074189, "airport_dep": "CAI", "str1": "7326", "lon": 31.4139, "fid": "c107898", "idshex": "706202", "flight": "9K-CAO", "typecode": "A320", "first_in": 1483441244.074189, "timestamp": 1483441235, "airport_arr": "KWI", "airport_icao_code": "F-HECA1", "lat": 29.8533, "airline_code2": "JZR535", "airline_code1": "J9535", "zone_range": "30,20,30,40", "_id": "c107898_1483441235"}, {"num4": -64, "num5": 0, "num1": 92, "num2": 139, "num3": 0, "height": 2425, "last_modify": 1483441437.936513, "airport_dep": "KUL", "str1": "2177", "lon": 78.5589, "fid": "c103c95", "idshex": "750109", "flight": "9M-AFD", "typecode": "A320", "first_in": 1483441437.936513, "timestamp": 1483441409, "airport_arr": "TRZ", "airport_icao_code": "F-VOTR1", "lat": 10.7493, "airline_code2": "AXM27", "airline_code1": "AK27", "zone_range": "20,10,70,80", "_id": "c103c95_1483441409"}, {"num4": 0, "num5": 0, "num1": 182, "num2": 409, "num3": 0, "height": 38000, "last_modify": 1483441235.277776, "airport_dep": "KMG", "str1": "3503", "lon": 101.5425, "fid": "c106797", "idshex": "75010A", "flight": "9M-AFE", "typecode": "A320", "first_in": 1483441235.277776, "timestamp": 1483441228, "airport_arr": "KUL", "airport_icao_code": "F-VTCN1", "lat": 18.4064, "airline_code2": "AXM102", "airline_code1": "AK102", "zone_range": "20,10,100,110", "_id": "c106797_1483441228"}, {"num4": 1408, "num5": 0, "num1": 127, "num2": 444, "num3": 0, "height": 26825, "last_modify": 1483441432.293916, "airport_dep": "PEN", "str1": "2655", "lon": 100.9962, "fid": "c10794b", "idshex": "75010E", "flight": "9M-AFG", "typecode": "A320", "first_in": 1483441432.293916, "timestamp": 1483441419, "airport_arr": "KUL", "airport_icao_code": "F-WMKI1", "lat": 4.2379, "airline_code2": "AXM6129", "airline_code1": "AK6129", "zone_range": "10,0,100,110", "_id": "c10794b_1483441419"}, {"num4": 64, "num5": 0, "num1": 247, "num2": 475, "num3": 0, "height": 34000, "last_modify": 1483441432.775939, "airport_dep": "BKI", "str1": "0446", "lon": 106.9533, "fid": "c1062c3", "idshex": "75013F", "flight": "9M-AFP", "typecode": "A320", "first_in": 1483441432.775939, "timestamp": 1483441419, "airport_arr": "JHB", "airport_icao_code": "F-WIOO4", "lat": 1.8143, "airline_code2": "AXM5303", "airline_code1": "AK5303", "zone_range": "10,0,100,110", "_id": "c1062c3_1483441419"}, {"num4": 0, "num5": 0, "num1": 270, "num2": 467, "num3": 0, "height": 32000, "last_modify": 1483441432.77441, "airport_dep": "KCH", "str1": "2044", "lon": 106.9277, "fid": "c1073ad", "idshex": "750147", "flight": "9M-AFU", "typecode": "A320", "first_in": 1483441432.77441, "timestamp": 1483441419, "airport_arr": "JHB", "airport_icao_code": "F-WIOO4", "lat": 1.3843, "airline_code2": "AXM5417", "airline_code1": "AK5417", "zone_range": "10,0,100,110", "_id": "c1073ad_1483441419"}, {"num4": -896, "num5": 0, "num1": 315, "num2": 316, "num3": 0, "height": 7075, "last_modify": 1483441432.393906, "airport_dep": "SIN", "str1": "2226", "lon": 102.0533, "fid": "c107759", "idshex": "750148", "flight": "9M-AFV", "typecode": "A320", "first_in": 1483441432.393906, "timestamp": 1483441420, "airport_arr": "KUL", "airport_icao_code": "F-WMKJ2", "lat": 2.2239, "airline_code2": "AXM716", "airline_code1": "AK716", "zone_range": "10,0,100,110", "_id": "c107759_1483441420"}, {"num4": 0, "num5": 0, "num1": 296, "num2": 471, "num3": 0, "height": 35975, "last_modify": 1483441417.203752, "airport_dep": "JOG", "str1": "6666", "lon": 107.4133, "fid": "c107697", "idshex": "750149", "flight": "9M-AFW", "typecode": "A320", "first_in": 1483441417.203752, "timestamp": 1483441407, "airport_arr": "KUL", "airport_icao_code": "F-WIII2", "lat": -5.8822, "airline_code2": "AXM349", "airline_code1": "AK349", "zone_range": "0,-10,100,110", "_id": "c107697_1483441407"}, {"num4": 64, "num5": 0, "num1": 310, "num2": 468, "num3": 0, "height": 36000, "last_modify": 1483441432.388399, "airport_dep": "SIN", "str1": "2212", "lon": 101.9488, "fid": "c1078c1", "idshex": "75014C", "flight": "9M-AFZ", "typecode": "A320", "first_in": 1483441432.388399, "timestamp": 1483441417, "airport_arr": "PEN", "airport_icao_code": "T-WMSA11", "lat": 3.1692, "airline_code2": "AXM758", "airline_code1": "AK758", "zone_range": "10,0,100,110", "_id": "c1078c1_1483441417"}, {"num4": -2368, "num5": 0, "num1": 131, "num2": 427, "num3": 0, "height": 21025, "last_modify": 1483441416.359743, "airport_dep": "KUL", "str1": "2170", "lon": 114.453, "fid": "c105201", "idshex": "750092", "flight": "9M-AHA", "typecode": "A320", "first_in": 1483441416.359743, "timestamp": 1483441403, "airport_arr": "DPS", "airport_icao_code": "F-WADD3", "lat": -8.1697, "airline_code2": "AXM378", "airline_code1": "AK378", "zone_range": "0,-10,110,120", "_id": "c105201_1483441403"}, {"num4": -768, "num5": 0, "num1": 326, "num2": 132, "num3": 0, "height": 575, "last_modify": 1483441012.190472, "airport_dep": "JHB", "str1": "0356", "lon": 101.7081, "fid": "c10722f", "idshex": "7500BF", "flight": "9M-AHB", "typecode": "A320", "first_in": 1483441012.190472, "timestamp": 1483440996, "airport_arr": "KUL", "airport_icao_code": "F-WMSA3", "lat": 2.6925, "airline_code2": "AXM6041", "airline_code1": "AK6041", "zone_range": "10,0,100,110", "_id": "c10722f_1483440996"}, {"num4": -64, "num5": 0, "num1": 322, "num2": 311, "num3": 0, "height": 13000, "last_modify": 1483441248.256713, "airport_dep": "BKI", "str1": "0453", "lon": 114.4877, "fid": "c104df6", "idshex": "7500DC", "flight": "9M-AHD", "typecode": "A320", "first_in": 1483441248.256713, "timestamp": 1483441238, "airport_arr": "HKG", "airport_icao_code": "T-VHHH80", "lat": 21.6464, "airline_code2": "AXM239", "airline_code1": "AK239", "zone_range": "30,20,110,120", "_id": "c104df6_1483441238"}, {"num4": 0, "num5": 0, "num1": 82, "num2": 441, "num3": 0, "height": 37000, "last_modify": 1483441224.688224, "airport_dep": "KUL", "str1": "2162", "lon": 109.9105, "fid": "c106720", "idshex": "7500E4", "flight": "9M-AHE", "typecode": "A320", "first_in": 1483441224.688224, "timestamp": 1483441207, "airport_arr": "BTU", "airport_icao_code": "F-WIOO4", "lat": 2.7182, "airline_code2": "AXM5242", "airline_code1": "AK5242", "zone_range": "10,0,100,110", "_id": "c106720_1483441207"}, {"num4": 1792, "num5": 0, "num1": 196, "num2": 374, "num3": 0, "height": 12250, "last_modify": 1483441427.757733, "airport_dep": "BKI", "str1": "0434", "lon": 115.8125, "fid": "c107bd9", "idshex": "750159", "flight": "9M-AHF", "typecode": "A320", "first_in": 1483441427.757733, "timestamp": 1483441420, "airport_arr": "CGK", "airport_icao_code": "F-WBKK2", "lat": 5.5153, "airline_code2": "AXM241", "airline_code1": "AK241", "zone_range": "10,0,110,120", "_id": "c107bd9_1483441420"}, {"num4": 0, "num5": 0, "num1": 60, "num2": 445, "num3": 0, "height": 37000, "last_modify": 1483441224.692249, "airport_dep": "SIN", "str1": "0134", "lon": 112.6144, "fid": "c1065f8", "idshex": "75015A", "flight": "9M-AHG", "typecode": "A320", "first_in": 1483441224.692249, "timestamp": 1483441218, "airport_arr": "BKI", "airport_icao_code": "T-WBGG4", "lat": 4.0182, "airline_code2": "AXM788", "airline_code1": "AK788", "zone_range": "10,0,110,120", "_id": "c1065f8_1483441218"}, {"num4": 0, "num5": 0, "num1": 224, "num2": 0, "num3": 1, "height": 0, "last_modify": 1483441427.787415, "airport_dep": "BKI", "str1": "2171", "lon": 116.0502, "fid": "c107f1b", "idshex": "75015B", "flight": "9M-AHH", "typecode": "A320", "first_in": 1483441427.787415, "timestamp": 1483441417, "airport_arr": "KUL", "airport_icao_code": "F-WBKK2", "lat": 5.9253, "airline_code2": "AXM5119", "airline_code1": "AK5119", "zone_range": "10,0,110,120", "_id": "c107f1b_1483441417"}, {"num4": 0, "num5": 0, "num1": 191, "num2": 436, "num3": 0, "height": 36000, "last_modify": 1483441235.496031, "airport_dep": "NNG", "str1": "2457", "lon": 105.6464, "fid": "c106be9", "idshex": "75002A", "flight": "9M-AHJ", "typecode": "A320", "first_in": 1483441235.496031, "timestamp": 1483441227, "airport_arr": "KUL", "airport_icao_code": "F-VDSR2", "lat": 14.7489, "airline_code2": "AXM169", "airline_code1": "AK169", "zone_range": "20,10,100,110", "_id": "c106be9_1483441227"}, {"num4": 0, "num5": 0, "num1": 224, "num2": 452, "num3": 0, "height": 36000, "last_modify": 1483441224.469848, "airport_dep": "SGN", "str1": "5622", "lon": 103.8992, "fid": "c106a80", "idshex": "750090", "flight": "9M-AHQ", "typecode": "A320", "first_in": 1483441224.469848, "timestamp": 1483441215, "airport_arr": "KUL", "airport_icao_code": "F-WMKN1", "lat": 7.252, "airline_code2": "AXM523", "airline_code1": "AK523", "zone_range": "10,0,100,110", "_id": "c106a80_1483441215"}, {"num4": 0, "num5": 0, "num1": 325, "num2": 454, "num3": 0, "height": 32000, "last_modify": 1483441432.230886, "airport_dep": "KUL", "str1": "0330", "lon": 100.5438, "fid": "c107af6", "idshex": "750094", "flight": "9M-AHR", "typecode": "A320", "first_in": 1483441432.230886, "timestamp": 1483441419, "airport_arr": "LGK", "airport_icao_code": "F-WMKI1", "lat": 4.3808, "airline_code2": "AXM6314", "airline_code1": "AK6314", "zone_range": "10,0,100,110", "_id": "c107af6_1483441419"}, {"num4": 3264, "num5": 0, "num1": 238, "num2": 220, "num3": 0, "height": 4000, "last_modify": 1483441427.791202, "airport_dep": "TWU", "str1": "0000", "lon": 118.0346, "fid": "c10817b", "idshex": "7500DD", "flight": "9M-AHS", "typecode": "A320", "first_in": 1483441427.791202, "timestamp": 1483441419, "airport_arr": "KUL", "airport_icao_code": "F-WBKW1", "lat": 4.2598, "airline_code2": "AXM5741", "airline_code1": "AK5741", "zone_range": "10,0,110,120", "_id": "c10817b_1483441419"}, {"num4": 0, "num5": 0, "num1": 333, "num2": 478, "num3": 0, "height": 36000, "last_modify": 1483441235.009134, "airport_dep": "KUL", "str1": "2137", "lon": 100.1284, "fid": "c1069bf", "idshex": "7501FD", "flight": "9M-AHZ", "typecode": "A320", "first_in": 1483441235.009134, "timestamp": 1483441227, "airport_arr": "RGN", "airport_icao_code": "F-VTSM1", "lat": 10.4243, "airline_code2": "AXM502", "airline_code1": "AK502", "zone_range": "20,10,100,110", "_id": "c1069bf_1483441227"}, {"num4": -1984, "num5": 0, "num1": 10, "num2": 351, "num3": 0, "height": 11800, "last_modify": 1483441248.84018, "airport_dep": "BKI", "str1": "0325", "lon": 119.8731, "fid": "c1031ef", "idshex": "75033B", "flight": "9M-AJC", "typecode": "A320", "first_in": 1483441248.84018, "timestamp": 1483441239, "airport_arr": "HGH", "airport_icao_code": "F-ZSHC2", "lat": 29.4716, "airline_code2": "AXM257", "airline_code1": "AK257", "zone_range": "30,20,110,120", "_id": "c1031ef_1483441239"}, {"num4": -768, "num5": 0, "num1": 326, "num2": 150, "num3": 0, "height": 1350, "last_modify": 1483441224.167524, "airport_dep": "KBR", "str1": "0344", "lon": 101.7318, "fid": "c106c66", "idshex": "75033C", "flight": "9M-AJE", "typecode": "A320", "first_in": 1483441224.167524, "timestamp": 1483441216, "airport_arr": "KUL", "airport_icao_code": "F-WMSA3", "lat": 2.6572, "airline_code2": "AXM6441", "airline_code1": "AK6441", "zone_range": "10,0,100,110", "_id": "c106c66_1483441216"}, {"num4": -64, "num5": 0, "num1": 325, "num2": 176, "num3": 0, "height": 2675, "last_modify": 1483441224.169145, "airport_dep": "PKU", "str1": "6701", "lon": 101.78, "fid": "c106d93", "idshex": "7503B1", "flight": "9M-AJG", "typecode": "A320", "first_in": 1483441224.169145, "timestamp": 1483441215, "airport_arr": "KUL", "airport_icao_code": "F-WMKK2", "lat": 2.5853, "airline_code2": "AXM438", "airline_code1": "AK438", "zone_range": "10,0,100,110", "_id": "c106d93_1483441215"}, {"num4": 2816, "num5": 0, "num1": 75, "num2": 314, "num3": 0, "height": 7675, "last_modify": 1483441432.355493, "airport_dep": "KUL", "str1": "2170", "lon": 101.7948, "fid": "c108058", "idshex": "7503BF", "flight": "9M-AJK", "typecode": "A320", "first_in": 1483441432.355493, "timestamp": 1483441417, "airport_arr": "SBW", "airport_icao_code": "F-WMSA4", "lat": 2.7731, "airline_code2": "AXM5874", "airline_code1": "AK5874", "zone_range": "10,0,100,110", "_id": "c108058_1483441417"}, {"num4": 0, "num5": 0, "num1": 129, "num2": 457, "num3": 0, "height": 35000, "last_modify": 1483441432.701472, "airport_dep": "KUL", "str1": "2131", "lon": 104.129, "fid": "c107552", "idshex": "7503F6", "flight": "9M-AJY", "typecode": "A320", "first_in": 1483441432.701472, "timestamp": 1483441414, "airport_arr": "DPS", "airport_icao_code": "F-WSSS1", "lat": 0.0688, "airline_code2": "AXM374", "airline_code1": "AK374", "zone_range": "10,0,100,110", "_id": "c107552_1483441414"}, {"num4": -960, "num5": 0, "num1": 179, "num2": 250, "num3": 0, "height": 14450, "last_modify": 1483441235.006316, "airport_dep": "KUL", "str1": "2114", "lon": 100.2412, "fid": "c1061f8", "idshex": "7503FD", "flight": "9M-AJZ", "typecode": "A320", "first_in": 1483441235.006316, "timestamp": 1483441227, "airport_arr": "DMK", "airport_icao_code": "F-VTBD2", "lat": 13.347, "airline_code2": "AXM892", "airline_code1": "AK892", "zone_range": "20,10,100,110", "_id": "c1061f8_1483441227"}, {"num4": -704, "num5": 0, "num1": 117, "num2": 213, "num3": 0, "height": 2725, "last_modify": 1483441224.823118, "airport_dep": "PEN", "str1": "2654", "lon": 98.6659, "fid": "c107445", "idshex": "750239", "flight": "9M-AQB", "typecode": "A320", "first_in": 1483441224.823118, "timestamp": 1483441221, "airport_arr": "KNO", "airport_icao_code": "F-WIMM2", "lat": 3.4788, "airline_code2": "AXM299", "airline_code1": "AK299", "zone_range": "10,0,90,100", "_id": "c107445_1483441221"}, {"num4": -576, "num5": 0, "num1": 208, "num2": 401, "num3": 0, "height": 26975, "last_modify": 1483441432.46771, "airport_dep": "PNH", "str1": "1616", "lon": 102.0923, "fid": "c1064df", "idshex": "750277", "flight": "9M-AQC", "typecode": "A320", "first_in": 1483441432.46771, "timestamp": 1483441409, "airport_arr": "KUL", "airport_icao_code": "F-WMKN1", "lat": 3.6827, "airline_code2": "AXM535", "airline_code1": "AK535", "zone_range": "10,0,100,110", "_id": "c1064df_1483441409"}, {"num4": 2048, "num5": 0, "num1": 275, "num2": 372, "num3": 0, "height": 15475, "last_modify": 1483441427.754801, "airport_dep": "BKI", "str1": "0432", "lon": 115.4898, "fid": "c107a9b", "idshex": "75027D", "flight": "9M-AQD", "typecode": "A320", "first_in": 1483441427.754801, "timestamp": 1483441420, "airport_arr": "KUL", "airport_icao_code": "F-WBKK2", "lat": 5.7962, "airline_code2": "AXM5117", "airline_code1": "AK5117", "zone_range": "10,0,110,120", "_id": "c107a9b_1483441420"}, {"num4": 1728, "num5": 0, "num1": 136, "num2": 391, "num3": 0, "height": 15150, "last_modify": 1483441224.241515, "airport_dep": "KUL", "str1": "2176", "lon": 101.8192, "fid": "c107da5", "idshex": "75027E", "flight": "9M-AQF", "typecode": "A320", "first_in": 1483441224.241515, "timestamp": 1483441215, "airport_arr": "CGK", "airport_icao_code": "F-WMSA2", "lat": 2.2742, "airline_code2": "AXM386", "airline_code1": "AK386", "zone_range": "10,0,100,110", "_id": "c107da5_1483441215"}, {"num4": -64, "num5": 0, "num1": 325, "num2": 193, "num3": 0, "height": 2675, "last_modify": 1483441012.225376, "airport_dep": "LGK", "str1": "0352", "lon": 101.778, "fid": "c106d87", "idshex": "750287", "flight": "9M-AQH", "typecode": "A320", "first_in": 1483441012.225376, "timestamp": 1483441003, "airport_arr": "KUL", "airport_icao_code": "F-WMSA2", "lat": 2.5882, "airline_code2": "AXM6313", "airline_code1": "AK6313", "zone_range": "10,0,100,110", "_id": "c106d87_1483441003"}, {"num4": 384, "num5": 0, "num1": 131, "num2": 473, "num3": 0, "height": 27975, "last_modify": 1483441432.56644, "airport_dep": "KUL", "str1": "2167", "lon": 103.0243, "fid": "c107a44", "idshex": "750288", "flight": "9M-AQI", "typecode": "A320", "first_in": 1483441432.56644, "timestamp": 1483441420, "airport_arr": "SUB", "airport_icao_code": "F-WMKJ2", "lat": 1.3356, "airline_code2": "AXM362", "airline_code1": "AK362", "zone_range": "10,0,100,110", "_id": "c107a44_1483441420"}, {"num4": 0, "num5": 0, "num1": 337, "num2": 9, "num3": 1, "height": 0, "last_modify": 1483441012.954452, "airport_dep": "PEN", "str1": "2105", "lon": 110.3428, "fid": "c105587", "idshex": "75029C", "flight": "9M-AQM", "typecode": "A320", "first_in": 1483441012.954452, "timestamp": 1483441005, "airport_arr": "KCH", "airport_icao_code": "F-WBGG2", "lat": 1.4868, "airline_code2": "AXM5436", "airline_code1": "AK5436", "zone_range": "10,0,110,120", "_id": "c105587_1483441005"}, {"num4": 0, "num5": 0, "num1": 70, "num2": 24, "num3": 1, "height": 0, "last_modify": 1483441224.689985, "airport_dep": "KCH", "str1": "0000", "lon": 110.3447, "fid": "c107f47", "idshex": "7502AD", "flight": "9M-AQN", "typecode": "A320", "first_in": 1483441224.689985, "timestamp": 1483441214, "airport_arr": "KUL", "airport_icao_code": "F-WBGG2", "lat": 1.4867, "airline_code2": "AXM5215", "airline_code1": "AK5215", "zone_range": "10,0,110,120", "_id": "c107f47_1483441214"}, {"num4": 832, "num5": 0, "num1": 105, "num2": 466, "num3": 0, "height": 29525, "last_modify": 1483441432.630662, "airport_dep": "KUL", "str1": "2116", "lon": 103.9774, "fid": "c107825", "idshex": "7502B7", "flight": "9M-AQP", "typecode": "A320", "first_in": 1483441432.630662, "timestamp": 1483441419, "airport_arr": "KCH", "airport_icao_code": "F-WMAU1", "lat": 3.2294, "airline_code2": "AXM5234", "airline_code1": "AK5234", "zone_range": "10,0,100,110", "_id": "c107825_1483441419"}, {"num4": -1792, "num5": 0, "num1": 235, "num2": 353, "num3": 0, "height": 14525, "last_modify": 1483441432.494695, "airport_dep": "KCH", "str1": "2033", "lon": 102.4282, "fid": "c1065c2", "idshex": "7502B9", "flight": "9M-AQR", "typecode": "A320", "first_in": 1483441432.494695, "timestamp": 1483441420, "airport_arr": "KUL", "airport_icao_code": "F-WMKJ2", "lat": 2.4624, "airline_code2": "AXM5213", "airline_code1": "AK5213", "zone_range": "10,0,100,110", "_id": "c1065c2_1483441420"}, {"num4": -1088, "num5": 0, "num1": 321, "num2": 473, "num3": 0, "height": 36075, "last_modify": 1483441426.682755, "airport_dep": "KUL", "str1": "2145", "lon": 99.6007, "fid": "c107493", "idshex": "7502BC", "flight": "9M-AQS", "typecode": "A320", "first_in": 1483441426.682755, "timestamp": 1483441419, "airport_arr": "HKT", "airport_icao_code": "F-WMKA1", "lat": 6.5044, "airline_code2": "AXM826", "airline_code1": "AK826", "zone_range": "10,0,90,100", "_id": "c107493_1483441419"}, {"num4": -2240, "num5": 0, "num1": 117, "num2": 389, "num3": 0, "height": 19025, "last_modify": 1483441224.693232, "airport_dep": "KUL", "str1": "2152", "lon": 112.9369, "fid": "c105d10", "idshex": "7502CA", "flight": "9M-AQU", "typecode": "A320", "first_in": 1483441224.693232, "timestamp": 1483441214, "airport_arr": "MYY", "airport_icao_code": "F-WBGR1", "lat": 4.5641, "airline_code2": "AXM5646", "airline_code1": "AK5646", "zone_range": "10,0,110,120", "_id": "c105d10_1483441214"}, {"num4": 0, "num5": 0, "num1": 75, "num2": 451, "num3": 0, "height": 36975, "last_modify": 1483441224.690765, "airport_dep": "KUL", "str1": "2113", "lon": 112.1092, "fid": "c1060f5", "idshex": "750322", "flight": "9M-AQX", "typecode": "A320", "first_in": 1483441224.690765, "timestamp": 1483441214, "airport_arr": "BKI", "airport_icao_code": "T-WBGG4", "lat": 4.9049, "airline_code2": "AXM5120", "airline_code1": "AK5120", "zone_range": "10,0,110,120", "_id": "c1060f5_1483441214"}, {"num4": 0, "num5": 0, "num1": 34, "num2": 467, "num3": 0, "height": 36000, "last_modify": 1483441235.842535, "airport_dep": "", "str1": "0000", "lon": 114.2812, "fid": "c107fd4", "idshex": "750323", "flight": "9M-AQY", "typecode": "A320", "first_in": 1483441235.842535, "timestamp": 1483441226, "airport_arr": "", "airport_icao_code": "T-VHHH80", "lat": 17.8761, "airline_code2": "", "airline_code1": "", "zone_range": "20,10,110,120", "_id": "c107fd4_1483441226"}, {"num4": 0, "num5": 0, "num1": 130, "num2": 451, "num3": 0, "height": 37000, "last_modify": 1483441432.670391, "airport_dep": "KUL", "str1": "2132", "lon": 104.1245, "fid": "c1073c8", "idshex": "750245", "flight": "9M-FFF", "typecode": "B738", "first_in": 1483441432.670391, "timestamp": 1483441420, "airport_arr": "CGK", "airport_icao_code": "F-WMKJ2", "lat": 0.3551, "airline_code2": "MAS725", "airline_code1": "MH725", "zone_range": "10,0,100,110", "_id": "c1073c8_1483441420"}, {"num4": 832, "num5": 0, "num1": 298, "num2": 200, "num3": 0, "height": 12692, "last_modify": 1483441432.569051, "airport_dep": "SIN", "str1": "2221", "lon": 103.5298, "fid": "c107f0d", "idshex": "75002D", "flight": "9M-FYB", "typecode": "AT75", "first_in": 1483441432.569051, "timestamp": 1483441419, "airport_arr": "", "airport_icao_code": "T-MLAT5", "lat": 1.7266, "airline_code2": "9MFYB", "airline_code1": "", "zone_range": "10,0,100,110", "_id": "c107f0d_1483441419"}, {"num4": -832, "num5": 0, "num1": 11, "num2": 194, "num3": 0, "height": 4750, "last_modify": 1483441247.903064, "airport_dep": "BKI", "str1": "0421", "lon": 113.656, "fid": "c104a7b", "idshex": "7502D1", "flight": "9M-GSB", "typecode": "B734", "first_in": 1483441247.903064, "timestamp": 1483441238, "airport_arr": "", "airport_icao_code": "T-VHHH80", "lat": 21.9305, "airline_code2": "CXM820", "airline_code1": "", "zone_range": "30,20,110,120", "_id": "c104a7b_1483441238"}, {"num4": 2240, "num5": 0, "num1": 12, "num2": 431, "num3": 0, "height": 21375, "last_modify": 1483441432.488752, "airport_dep": "KUL", "str1": "0360", "lon": 102.1262, "fid": "c107cba", "idshex": "750402", "flight": "9M-LCC", "typecode": "B738", "first_in": 1483441432.488752, "timestamp": 1483441419, "airport_arr": "KBR", "airport_icao_code": "F-WMKK2", "lat": 3.5395, "airline_code2": "MXD2306", "airline_code1": "OD2306", "zone_range": "10,0,100,110", "_id": "c107cba_1483441419"}, {"num4": -1024, "num5": 0, "num1": 216, "num2": 452, "num3": 0, "height": 33000, "last_modify": 1483441224.324112, "airport_dep": "SGN", "str1": "5644", "lon": 102.3073, "fid": "c1060a4", "idshex": "750403", "flight": "9M-LCD", "typecode": "B738", "first_in": 1483441224.324112, "timestamp": 1483441215, "airport_arr": "KUL", "airport_icao_code": "F-WMKN1", "lat": 4.2394, "airline_code2": "MXD562", "airline_code1": "OD562", "zone_range": "10,0,100,110", "_id": "c1060a4_1483441215"}, {"num4": -704, "num5": 0, "num1": 326, "num2": 142, "num3": 0, "height": 1200, "last_modify": 1483441012.224239, "airport_dep": "MYY", "str1": "0466", "lon": 101.7481, "fid": "c105a3f", "idshex": "750404", "flight": "9M-LCF", "typecode": "B738", "first_in": 1483441012.224239, "timestamp": 1483441003, "airport_arr": "KUL", "airport_icao_code": "T-WMSA11", "lat": 2.6685, "airline_code2": "MWD1651", "airline_code1": "OD1651", "zone_range": "10,0,100,110", "_id": "c105a3f_1483441003"}, {"num4": -896, "num5": 0, "num1": 325, "num2": 140, "num3": 0, "height": 550, "last_modify": 1483441012.221576, "airport_dep": "HKG", "str1": "5353", "lon": 101.7162, "fid": "c103352", "idshex": "750405", "flight": "9M-LCG", "typecode": "B738", "first_in": 1483441012.221576, "timestamp": 1483440942, "airport_arr": "KUL", "airport_icao_code": "F-WMSA3", "lat": 2.7154, "airline_code2": "MXD606", "airline_code1": "OD606", "zone_range": "10,0,100,110", "_id": "c103352_1483440942"}, {"num4": 0, "num5": 0, "num1": 255, "num2": 462, "num3": 0, "height": 38000, "last_modify": 1483441432.806262, "airport_dep": "BKI", "str1": "0412", "lon": 109.6537, "fid": "c106a31", "idshex": "750406", "flight": "9M-LCH", "typecode": "B738", "first_in": 1483441432.806262, "timestamp": 1483441415, "airport_arr": "KUL", "airport_icao_code": "F-WBGG3", "lat": 4.2741, "airline_code2": "MXD1015", "airline_code1": "OD1015", "zone_range": "10,0,100,110", "_id": "c106a31_1483441415"}, {"num4": 64, "num5": 0, "num1": 99, "num2": 452, "num3": 0, "height": 33000, "last_modify": 1483441432.709738, "airport_dep": "KUL", "str1": "2164", "lon": 104.9061, "fid": "c107499", "idshex": "750407", "flight": "9M-LCJ", "typecode": "B738", "first_in": 1483441432.709738, "timestamp": 1483441419, "airport_arr": "BKI", "airport_icao_code": "F-WMAU1", "lat": 3.8833, "airline_code2": "MXD1012", "airline_code1": "OD1012", "zone_range": "10,0,100,110", "_id": "c107499_1483441419"}, {"num4": 704, "num5": 0, "num1": 25, "num2": 217, "num3": 0, "height": 12500, "last_modify": 1483441432.386512, "airport_dep": "SZB", "str1": "0333", "lon": 101.8739, "fid": "c107ddd", "idshex": "7502DD", "flight": "9M-LMG", "typecode": "AT76", "first_in": 1483441432.386512, "timestamp": 1483441417, "airport_arr": "KBR", "airport_icao_code": "F-WMSA4", "lat": 3.4409, "airline_code2": "MXD1236", "airline_code1": "OD1236", "zone_range": "10,0,100,110", "_id": "c107ddd_1483441417"}, {"num4": -64, "num5": 0, "num1": 327, "num2": 264, "num3": 0, "height": 20000, "last_modify": 1483441432.177126, "airport_dep": "SZB", "str1": "0340", "lon": 100.343, "fid": "c1074ea", "idshex": "750305", "flight": "9M-LML", "typecode": "AT76", "first_in": 1483441432.177126, "timestamp": 1483441419, "airport_arr": "LGK", "airport_icao_code": "F-WMKI1", "lat": 4.6812, "airline_code2": "OD1412", "airline_code1": "OD1412", "zone_range": "10,0,100,110", "_id": "c1074ea_1483441419"}, {"num4": 896, "num5": 0, "num1": 295, "num2": 191, "num3": 0, "height": 10550, "last_modify": 1483441432.565076, "airport_dep": "JHB", "str1": "0373", "lon": 103.3241, "fid": "c107f56", "idshex": "7503B6", "flight": "9M-LMM", "typecode": "AT76", "first_in": 1483441432.565076, "timestamp": 1483441420, "airport_arr": "SZB", "airport_icao_code": "F-WMKJ2", "lat": 1.8386, "airline_code2": "MXD1202", "airline_code1": "OD1202", "zone_range": "10,0,100,110", "_id": "c107f56_1483441420"}, {"num4": 0, "num5": 0, "num1": 149, "num2": 94, "num3": 1, "height": 0, "last_modify": 1483441432.301511, "airport_dep": "KBR", "str1": "0345", "lon": 101.5444, "fid": "c106d38", "idshex": "7503B9", "flight": "9M-LMQ", "typecode": "AT76", "first_in": 1483441432.301511, "timestamp": 1483441414, "airport_arr": "SZB", "airport_icao_code": "F-WMSA4", "lat": 3.1391, "airline_code2": "MXD1231", "airline_code1": "OD1231", "zone_range": "10,0,100,110", "_id": "c106d38_1483441414"}, {"num4": -64, "num5": 0, "num1": 163, "num2": 253, "num3": 0, "height": 15000, "last_modify": 1483441432.295597, "airport_dep": "AOR", "str1": "2653", "lon": 101.1044, "fid": "c1075ce", "idshex": "750409", "flight": "9M-LMS", "typecode": "AT76", "first_in": 1483441432.295597, "timestamp": 1483441419, "airport_arr": "SZB", "airport_icao_code": "F-WMKI1", "lat": 4.5374, "airline_code2": "MXD1509", "airline_code1": "OD1509", "zone_range": "10,0,100,110", "_id": "c1075ce_1483441419"}, {"num4": 1280, "num5": 0, "num1": 129, "num2": 183, "num3": 0, "height": 8400, "last_modify": 1483441432.227368, "airport_dep": "PEN", "str1": "2656", "lon": 100.452, "fid": "c107f81", "idshex": "75040C", "flight": "9M-LMV", "typecode": "AT76", "first_in": 1483441432.227368, "timestamp": 1483441419, "airport_arr": "", "airport_icao_code": "T-WMKP3", "lat": 5.113, "airline_code2": "MXD1166", "airline_code1": "OD1166", "zone_range": "10,0,100,110", "_id": "c107f81_1483441419"}, {"num4": 0, "num5": 0, "num1": 335, "num2": 460, "num3": 0, "height": 34000, "last_modify": 1483441426.688311, "airport_dep": "KUL", "str1": "2104", "lon": 99.9256, "fid": "c105de6", "idshex": "7502C2", "flight": "9M-LNF", "typecode": "B739", "first_in": 1483441426.688311, "timestamp": 1483441415, "airport_arr": "DEL", "airport_icao_code": "F-WIMM2", "lat": 5.9583, "airline_code2": "MXD205", "airline_code1": "OD205", "zone_range": "10,0,90,100", "_id": "c105de6_1483441415"}, {"num4": 2176, "num5": 0, "num1": 335, "num2": 401, "num3": 0, "height": 16350, "last_modify": 1483441432.297221, "airport_dep": "KUL", "str1": "2112", "lon": 101.1867, "fid": "c107ce2", "idshex": "7502D9", "flight": "9M-LNL", "typecode": "B739", "first_in": 1483441432.297221, "timestamp": 1483441420, "airport_arr": "KTM", "airport_icao_code": "F-WMSA3", "lat": 3.2155, "airline_code2": "MXD182", "airline_code1": "OD182", "zone_range": "10,0,100,110", "_id": "c107ce2_1483441420"}, {"num4": 0, "num5": 0, "num1": 110, "num2": 442, "num3": 0, "height": 37000, "last_modify": 1483441416.204681, "airport_dep": "KUL", "str1": "0161", "lon": 111.3531, "fid": "c105ac1", "idshex": "7503C2", "flight": "9M-LNQ", "typecode": "B738", "first_in": 1483441416.204681, "timestamp": 1483441407, "airport_arr": "DPS", "airport_icao_code": "F-WIIS1", "lat": -5.9727, "airline_code2": "MXD308", "airline_code1": "OD308", "zone_range": "0,-10,110,120", "_id": "c105ac1_1483441407"}, {"num4": 0, "num5": 0, "num1": 56, "num2": 34, "num3": 1, "height": 0, "last_modify": 1483441432.35607, "airport_dep": "KUL", "str1": "0000", "lon": 101.7133, "fid": "c10814c", "idshex": "7503D7", "flight": "9M-LNR", "typecode": "B738", "first_in": 1483441432.35607, "timestamp": 1483441361, "airport_arr": "LGK", "airport_icao_code": "F-WMKK2", "lat": 2.7563, "airline_code2": "MXD2208", "airline_code1": "OD2208", "zone_range": "10,0,100,110", "_id": "c10814c_1483441361"}, {"num4": 0, "num5": 0, "num1": 271, "num2": 455, "num3": 0, "height": 36000, "last_modify": 1483441236.212172, "airport_dep": "KUL", "str1": "2132", "lon": 81.9091, "fid": "c1043a0", "idshex": "7503DB", "flight": "9M-LNV", "typecode": "B738", "first_in": 1483441236.212172, "timestamp": 1483441227, "airport_arr": "TRZ", "airport_icao_code": "F-VOPC1", "lat": 10.6671, "airline_code2": "MXD225", "airline_code1": "OD225", "zone_range": "20,10,80,90", "_id": "c1043a0_1483441227"}, {"num4": 0, "num5": 0, "num1": 188, "num2": 418, "num3": 0, "height": 40000, "last_modify": 1483441235.518443, "airport_dep": "KWE", "str1": "1561", "lon": 105.8029, "fid": "c105586", "idshex": "7503DF", "flight": "9M-LNY", "typecode": "B738", "first_in": 1483441235.518443, "timestamp": 1483441227, "airport_arr": "KUL", "airport_icao_code": "F-VTUO2", "lat": 15.6085, "airline_code2": "MXD609", "airline_code1": "OD609", "zone_range": "20,10,100,110", "_id": "c105586_1483441227"}, {"num4": -896, "num5": 0, "num1": 167, "num2": 156, "num3": 0, "height": 875, "last_modify": 1483441224.692712, "airport_dep": "KUL", "str1": "0000", "lon": 113.0095, "fid": "c105b08", "idshex": "750236", "flight": "9M-MLG", "typecode": "B738", "first_in": 1483441224.692712, "timestamp": 1483441216, "airport_arr": "BTU", "airport_icao_code": "F-WBGB1", "lat": 3.1709, "airline_code2": "MAS2746", "airline_code1": "MH2746", "zone_range": "10,0,110,120", "_id": "c105b08_1483441216"}, {"num4": -2432, "num5": 0, "num1": 334, "num2": 353, "num3": 0, "height": 14600, "last_modify": 1483441432.467431, "airport_dep": "KUL", "str1": "0327", "lon": 102.0643, "fid": "c10754b", "idshex": "750237", "flight": "9M-MLH", "typecode": "B738", "first_in": 1483441432.467431, "timestamp": 1483441420, "airport_arr": "KBR", "airport_icao_code": "F-WMKC6", "lat": 5.5194, "airline_code2": "MAS1402", "airline_code1": "MH1402", "zone_range": "10,0,100,110", "_id": "c10754b_1483441420"},